[
    {
        "city": "Bogot\u00e1", 
        "lat": "4.6126", 
        "lng": "-74.0705", 
        "country": "Colombia", 
        "iso2": "CO", 
        "admin_name": "Bogot\u00e1", 
        "capital": "primary", 
        "population": "9464000", 
        "population_proper": "7963000"
    }, 
    {
        "city": "Medell\u00edn", 
        "lat": "6.2447", 
        "lng": "-75.5748", 
        "country": "Colombia", 
        "iso2": "CO", 
        "admin_name": "Antioquia", 
        "capital": "admin", 
        "population": "2529403", 
        "population_proper": "2529403"
    }, 
    {
        "city": "Cali", 
        "lat": "3.4400", 
        "lng": "-76.5197", 
        "country": "Colombia", 
        "iso2": "CO", 
        "admin_name": "Valle del Cauca", 
        "capital": "admin", 
        "population": "2471474", 
        "population_proper": "2471474"
    }, 
    {
        "city": "Barranquilla", 
        "lat": "10.9600", 
        "lng": "-74.8000", 
        "country": "Colombia", 
        "iso2": "CO", 
        "admin_name": "Atl\u00e1ntico", 
        "capital": "admin", 
        "population": "1798000", 
        "population_proper": "1244491"
    }, 
    {
        "city": "Cartagena", 
        "lat": "10.4236", 
        "lng": "-75.5253", 
        "country": "Colombia", 
        "iso2": "CO", 
        "admin_name": "Bol\u00edvar", 
        "capital": "admin", 
        "population": "1036412", 
        "population_proper": "1036412"
    }, 
    {
        "city": "C\u00facuta", 
        "lat": "7.9075", 
        "lng": "-72.5047", 
        "country": "Colombia", 
        "iso2": "CO", 
        "admin_name": "Norte de Santander", 
        "capital": "admin", 
        "population": "750000", 
        "population_proper": "750000"
    }, 
    {
        "city": "Soledad", 
        "lat": "10.9200", 
        "lng": "-74.7700", 
        "country": "Colombia", 
        "iso2": "CO", 
        "admin_name": "Atl\u00e1ntico", 
        "capital": "minor", 
        "population": "698852", 
        "population_proper": "342556"
    }, 
    {
        "city": "Bucaramanga", 
        "lat": "7.1186", 
        "lng": "-73.1161", 
        "country": "Colombia", 
        "iso2": "CO", 
        "admin_name": "Santander", 
        "capital": "admin", 
        "population": "581130", 
        "population_proper": "581130"
    }, 
    {
        "city": "Pereira", 
        "lat": "4.8104", 
        "lng": "-75.6800", 
        "country": "Colombia", 
        "iso2": "CO", 
        "admin_name": "Risaralda", 
        "capital": "admin", 
        "population": "568750", 
        "population_proper": "440118"
    }, 
    {
        "city": "Ibagu\u00e9", 
        "lat": "4.4378", 
        "lng": "-75.2006", 
        "country": "Colombia", 
        "iso2": "CO", 
        "admin_name": "Tolima", 
        "capital": "admin", 
        "population": "541101", 
        "population_proper": "541101"
    }, 
    {
        "city": "Villavicencio", 
        "lat": "4.1425", 
        "lng": "-73.6294", 
        "country": "Colombia", 
        "iso2": "CO", 
        "admin_name": "Meta", 
        "capital": "admin", 
        "population": "527668", 
        "population_proper": "527668"
    }, 
    {
        "city": "Bello", 
        "lat": "6.3300", 
        "lng": "-75.5700", 
        "country": "Colombia", 
        "iso2": "CO", 
        "admin_name": "Antioquia", 
        "capital": "minor", 
        "population": "519670", 
        "population_proper": "392939"
    }, 
    {
        "city": "Santa Marta", 
        "lat": "11.2361", 
        "lng": "-74.2017", 
        "country": "Colombia", 
        "iso2": "CO", 
        "admin_name": "Magdalena", 
        "capital": "admin", 
        "population": "515556", 
        "population_proper": "515556"
    }, 
    {
        "city": "Valledupar", 
        "lat": "10.4603", 
        "lng": "-73.2597", 
        "country": "Colombia", 
        "iso2": "CO", 
        "admin_name": "Cesar", 
        "capital": "admin", 
        "population": "490075", 
        "population_proper": "490075"
    }, 
    {
        "city": "Monter\u00eda", 
        "lat": "8.7600", 
        "lng": "-75.8856", 
        "country": "Colombia", 
        "iso2": "CO", 
        "admin_name": "C\u00f3rdoba", 
        "capital": "admin", 
        "population": "460223", 
        "population_proper": "460223"
    }, 
    {
        "city": "Pasto", 
        "lat": "1.2136", 
        "lng": "-77.2811", 
        "country": "Colombia", 
        "iso2": "CO", 
        "admin_name": "Nari\u00f1o", 
        "capital": "admin", 
        "population": "382236", 
        "population_proper": "360041"
    }, 
    {
        "city": "Manizales", 
        "lat": "5.0600", 
        "lng": "-75.5200", 
        "country": "Colombia", 
        "iso2": "CO", 
        "admin_name": "Caldas", 
        "capital": "admin", 
        "population": "375848", 
        "population_proper": "357814"
    }, 
    {
        "city": "Neiva", 
        "lat": "2.9275", 
        "lng": "-75.2875", 
        "country": "Colombia", 
        "iso2": "CO", 
        "admin_name": "Huila", 
        "capital": "admin", 
        "population": "316033", 
        "population_proper": "316033"
    }, 
    {
        "city": "Armenia", 
        "lat": "4.5389", 
        "lng": "-75.6725", 
        "country": "Colombia", 
        "iso2": "CO", 
        "admin_name": "Quind\u00edo", 
        "capital": "admin", 
        "population": "301226", 
        "population_proper": "301226"
    }, 
    {
        "city": "Popay\u00e1n", 
        "lat": "2.4411", 
        "lng": "-76.6061", 
        "country": "Colombia", 
        "iso2": "CO", 
        "admin_name": "Cauca", 
        "capital": "admin", 
        "population": "300837", 
        "population_proper": "300837"
    }, 
    {
        "city": "Sincelejo", 
        "lat": "9.2994", 
        "lng": "-75.3958", 
        "country": "Colombia", 
        "iso2": "CO", 
        "admin_name": "Sucre", 
        "capital": "admin", 
        "population": "279031", 
        "population_proper": "279031"
    }, 
    {
        "city": "Buenaventura", 
        "lat": "3.8724", 
        "lng": "-77.0505", 
        "country": "Colombia", 
        "iso2": "CO", 
        "admin_name": "Valle del Cauca", 
        "capital": "minor", 
        "population": "252805", 
        "population_proper": "240387"
    }, 
    {
        "city": "Barrancabermeja", 
        "lat": "7.0900", 
        "lng": "-73.8500", 
        "country": "Colombia", 
        "iso2": "CO", 
        "admin_name": "Santander", 
        "capital": "minor", 
        "population": "191403", 
        "population_proper": "164201"
    }, 
    {
        "city": "Tunja", 
        "lat": "5.5403", 
        "lng": "-73.3614", 
        "country": "Colombia", 
        "iso2": "CO", 
        "admin_name": "Boyac\u00e1", 
        "capital": "admin", 
        "population": "179263", 
        "population_proper": "179263"
    }, 
    {
        "city": "R\u00edohacha", 
        "lat": "11.5442", 
        "lng": "-72.9069", 
        "country": "Colombia", 
        "iso2": "CO", 
        "admin_name": "La Guajira", 
        "capital": "admin", 
        "population": "167865", 
        "population_proper": "167865"
    }, 
    {
        "city": "Tulu\u00e1", 
        "lat": "4.0904", 
        "lng": "-76.2100", 
        "country": "Colombia", 
        "iso2": "CO", 
        "admin_name": "Valle del Cauca", 
        "capital": "minor", 
        "population": "165501", 
        "population_proper": "163062"
    }, 
    {
        "city": "Florencia", 
        "lat": "1.6142", 
        "lng": "-75.6117", 
        "country": "Colombia", 
        "iso2": "CO", 
        "admin_name": "Caquet\u00e1", 
        "capital": "admin", 
        "population": "143871", 
        "population_proper": "143871"
    }, 
    {
        "city": "Cartago", 
        "lat": "4.7500", 
        "lng": "-75.9100", 
        "country": "Colombia", 
        "iso2": "CO", 
        "admin_name": "Valle del Cauca", 
        "capital": "minor", 
        "population": "134827", 
        "population_proper": "111513"
    }, 
    {
        "city": "Ci\u00e9naga", 
        "lat": "11.0104", 
        "lng": "-74.2500", 
        "country": "Colombia", 
        "iso2": "CO", 
        "admin_name": "Magdalena", 
        "capital": "minor", 
        "population": "131171", 
        "population_proper": "88311"
    }, 
    {
        "city": "Quibd\u00f3", 
        "lat": "5.6923", 
        "lng": "-76.6582", 
        "country": "Colombia", 
        "iso2": "CO", 
        "admin_name": "Choc\u00f3", 
        "capital": "admin", 
        "population": "130825", 
        "population_proper": "130825"
    }, 
    {
        "city": "Girardot", 
        "lat": "4.3100", 
        "lng": "-74.8100", 
        "country": "Colombia", 
        "iso2": "CO", 
        "admin_name": "Cundinamarca", 
        "capital": "minor", 
        "population": "130289", 
        "population_proper": "113372"
    }, 
    {
        "city": "Sogamoso", 
        "lat": "5.7200", 
        "lng": "-72.9400", 
        "country": "Colombia", 
        "iso2": "CO", 
        "admin_name": "Boyac\u00e1", 
        "capital": "minor", 
        "population": "126551", 
        "population_proper": "113592"
    }, 
    {
        "city": "Ipiales", 
        "lat": "0.8289", 
        "lng": "-77.6406", 
        "country": "Colombia", 
        "iso2": "CO", 
        "admin_name": "Nari\u00f1o", 
        "capital": "minor", 
        "population": "109116", 
        "population_proper": "109116"
    }, 
    {
        "city": "Duitama", 
        "lat": "5.8305", 
        "lng": "-73.0200", 
        "country": "Colombia", 
        "iso2": "CO", 
        "admin_name": "Boyac\u00e1", 
        "capital": "minor", 
        "population": "101156", 
        "population_proper": "92040"
    }, 
    {
        "city": "Magangu\u00e9", 
        "lat": "9.2300", 
        "lng": "-74.7400", 
        "country": "Colombia", 
        "iso2": "CO", 
        "admin_name": "Bol\u00edvar", 
        "capital": "minor", 
        "population": "100313", 
        "population_proper": "89511"
    }, 
    {
        "city": "Arauca", 
        "lat": "7.0903", 
        "lng": "-70.7617", 
        "country": "Colombia", 
        "iso2": "CO", 
        "admin_name": "Arauca", 
        "capital": "admin", 
        "population": "96814", 
        "population_proper": "96814"
    }, 
    {
        "city": "Tumaco", 
        "lat": "1.8100", 
        "lng": "-78.8100", 
        "country": "Colombia", 
        "iso2": "CO", 
        "admin_name": "Nari\u00f1o", 
        "capital": "minor", 
        "population": "86713", 
        "population_proper": "86713"
    }, 
    {
        "city": "Oca\u00f1a", 
        "lat": "8.2404", 
        "lng": "-73.3500", 
        "country": "Colombia", 
        "iso2": "CO", 
        "admin_name": "Norte de Santander", 
        "capital": "minor", 
        "population": "83511", 
        "population_proper": "83292"
    }, 
    {
        "city": "San Andr\u00e9s", 
        "lat": "12.5847", 
        "lng": "-81.7006", 
        "country": "Colombia", 
        "iso2": "CO", 
        "admin_name": "San Andr\u00e9s y Providencia", 
        "capital": "admin", 
        "population": "71946", 
        "population_proper": "71946"
    }, 
    {
        "city": "Villa del Rosario", 
        "lat": "7.8353", 
        "lng": "-72.4736", 
        "country": "Colombia", 
        "iso2": "CO", 
        "admin_name": "Norte de Santander", 
        "capital": "minor", 
        "population": "69833", 
        "population_proper": "69833"
    }, 
    {
        "city": "San Jos\u00e9 del Guaviare", 
        "lat": "2.5653", 
        "lng": "-72.6386", 
        "country": "Colombia", 
        "iso2": "CO", 
        "admin_name": "Guaviare", 
        "capital": "admin", 
        "population": "68878", 
        "population_proper": "68878"
    }, 
    {
        "city": "Sabanalarga", 
        "lat": "10.6400", 
        "lng": "-74.9200", 
        "country": "Colombia", 
        "iso2": "CO", 
        "admin_name": "Atl\u00e1ntico", 
        "capital": "minor", 
        "population": "68535", 
        "population_proper": "63027"
    }, 
    {
        "city": "Yopal", 
        "lat": "5.3470", 
        "lng": "-72.4060", 
        "country": "Colombia", 
        "iso2": "CO", 
        "admin_name": "Casanare", 
        "capital": "admin", 
        "population": "61029", 
        "population_proper": "61029"
    }, 
    {
        "city": "El Carmen de Bol\u00edvar", 
        "lat": "9.7204", 
        "lng": "-75.1300", 
        "country": "Colombia", 
        "iso2": "CO", 
        "admin_name": "Bol\u00edvar", 
        "capital": "minor", 
        "population": "60980", 
        "population_proper": "47957"
    }, 
    {
        "city": "Garz\u00f3n", 
        "lat": "2.2104", 
        "lng": "-75.6500", 
        "country": "Colombia", 
        "iso2": "CO", 
        "admin_name": "Huila", 
        "capital": "minor", 
        "population": "56603", 
        "population_proper": "29451"
    }, 
    {
        "city": "El Banco", 
        "lat": "9.0003", 
        "lng": "-73.9800", 
        "country": "Colombia", 
        "iso2": "CO", 
        "admin_name": "Magdalena", 
        "capital": "minor", 
        "population": "54522", 
        "population_proper": "24735"
    }, 
    {
        "city": "Chiquinquir\u00e1", 
        "lat": "5.6204", 
        "lng": "-73.8199", 
        "country": "Colombia", 
        "iso2": "CO", 
        "admin_name": "Boyac\u00e1", 
        "capital": "minor", 
        "population": "53975", 
        "population_proper": "45294"
    }, 
    {
        "city": "Pamplona", 
        "lat": "7.3904", 
        "lng": "-72.6600", 
        "country": "Colombia", 
        "iso2": "CO", 
        "admin_name": "Norte de Santander", 
        "capital": "minor", 
        "population": "53587", 
        "population_proper": "52247"
    }, 
    {
        "city": "Lorica", 
        "lat": "9.2419", 
        "lng": "-75.8160", 
        "country": "Colombia", 
        "iso2": "CO", 
        "admin_name": "C\u00f3rdoba", 
        "capital": "minor", 
        "population": "52771", 
        "population_proper": "40605"
    }, 
    {
        "city": "Turbo", 
        "lat": "8.1004", 
        "lng": "-76.7400", 
        "country": "Colombia", 
        "iso2": "CO", 
        "admin_name": "Antioquia", 
        "capital": "minor", 
        "population": "50508", 
        "population_proper": "34007"
    }, 
    {
        "city": "Arjona", 
        "lat": "10.2600", 
        "lng": "-75.3500", 
        "country": "Colombia", 
        "iso2": "CO", 
        "admin_name": "Bol\u00edvar", 
        "capital": "minor", 
        "population": "50405", 
        "population_proper": "44045"
    }, 
    {
        "city": "Honda", 
        "lat": "5.1903", 
        "lng": "-74.7500", 
        "country": "Colombia", 
        "iso2": "CO", 
        "admin_name": "Tolima", 
        "capital": "minor", 
        "population": "35469", 
        "population_proper": "28158"
    }, 
    {
        "city": "Yarumal", 
        "lat": "7.0306", 
        "lng": "-75.5905", 
        "country": "Colombia", 
        "iso2": "CO", 
        "admin_name": "Antioquia", 
        "capital": "", 
        "population": "35315", 
        "population_proper": "35315"
    }, 
    {
        "city": "Puerto Berr\u00edo", 
        "lat": "6.4804", 
        "lng": "-74.4200", 
        "country": "Colombia", 
        "iso2": "CO", 
        "admin_name": "Antioquia", 
        "capital": "minor", 
        "population": "33983", 
        "population_proper": "32405"
    }, 
    {
        "city": "T\u00faquerres", 
        "lat": "1.0900", 
        "lng": "-77.6199", 
        "country": "Colombia", 
        "iso2": "CO", 
        "admin_name": "Nari\u00f1o", 
        "capital": "minor", 
        "population": "33979", 
        "population_proper": "20184"
    }, 
    {
        "city": "Leticia", 
        "lat": "-4.2150", 
        "lng": "-69.9411", 
        "country": "Colombia", 
        "iso2": "CO", 
        "admin_name": "Amazonas", 
        "capital": "admin", 
        "population": "32450", 
        "population_proper": "32450"
    }, 
    {
        "city": "Tame", 
        "lat": "6.4603", 
        "lng": "-71.7400", 
        "country": "Colombia", 
        "iso2": "CO", 
        "admin_name": "Arauca", 
        "capital": "minor", 
        "population": "29099", 
        "population_proper": "20961"
    }, 
    {
        "city": "Mit\u00fa", 
        "lat": "1.2503", 
        "lng": "-70.2350", 
        "country": "Colombia", 
        "iso2": "CO", 
        "admin_name": "Vaup\u00e9s", 
        "capital": "admin", 
        "population": "28382", 
        "population_proper": "28382"
    }, 
    {
        "city": "Santiago de Tol\u00fa", 
        "lat": "9.5358", 
        "lng": "-75.5720", 
        "country": "Colombia", 
        "iso2": "CO", 
        "admin_name": "Sucre", 
        "capital": "minor", 
        "population": "27390", 
        "population_proper": "12049"
    }, 
    {
        "city": "Socorro", 
        "lat": "6.4603", 
        "lng": "-73.2700", 
        "country": "Colombia", 
        "iso2": "CO", 
        "admin_name": "Santander", 
        "capital": "minor", 
        "population": "24895", 
        "population_proper": "17752"
    }, 
    {
        "city": "Ayapel", 
        "lat": "8.3304", 
        "lng": "-75.1500", 
        "country": "Colombia", 
        "iso2": "CO", 
        "admin_name": "C\u00f3rdoba", 
        "capital": "minor", 
        "population": "23639", 
        "population_proper": "22602"
    }, 
    {
        "city": "Campoalegre", 
        "lat": "2.6900", 
        "lng": "-75.3300", 
        "country": "Colombia", 
        "iso2": "CO", 
        "admin_name": "Huila", 
        "capital": "minor", 
        "population": "22568", 
        "population_proper": "11549"
    }, 
    {
        "city": "Mocoa", 
        "lat": "1.1500", 
        "lng": "-76.6300", 
        "country": "Colombia", 
        "iso2": "CO", 
        "admin_name": "Putumayo", 
        "capital": "admin", 
        "population": "22035", 
        "population_proper": "22035"
    }, 
    {
        "city": "San Jacinto", 
        "lat": "9.8311", 
        "lng": "-75.1219", 
        "country": "Colombia", 
        "iso2": "CO", 
        "admin_name": "Bol\u00edvar", 
        "capital": "minor", 
        "population": "21644", 
        "population_proper": "21644"
    }, 
    {
        "city": "Sons\u00f3n", 
        "lat": "5.7166", 
        "lng": "-75.3166", 
        "country": "Colombia", 
        "iso2": "CO", 
        "admin_name": "Antioquia", 
        "capital": "minor", 
        "population": "18817", 
        "population_proper": "17232"
    }, 
    {
        "city": "Puerto Carre\u00f1o", 
        "lat": "6.1889", 
        "lng": "-67.4858", 
        "country": "Colombia", 
        "iso2": "CO", 
        "admin_name": "Vichada", 
        "capital": "admin", 
        "population": "16763", 
        "population_proper": "16763"
    }, 
    {
        "city": "Puerto L\u00f3pez", 
        "lat": "4.0900", 
        "lng": "-72.9600", 
        "country": "Colombia", 
        "iso2": "CO", 
        "admin_name": "Meta", 
        "capital": "minor", 
        "population": "16678", 
        "population_proper": "7649"
    }, 
    {
        "city": "San Mart\u00edn", 
        "lat": "3.6904", 
        "lng": "-73.6900", 
        "country": "Colombia", 
        "iso2": "CO", 
        "admin_name": "Meta", 
        "capital": "minor", 
        "population": "16273", 
        "population_proper": "8335"
    }, 
    {
        "city": "Guap\u00ed", 
        "lat": "2.5604", 
        "lng": "-77.8600", 
        "country": "Colombia", 
        "iso2": "CO", 
        "admin_name": "Cauca", 
        "capital": "minor", 
        "population": "13853", 
        "population_proper": "13853"
    }, 
    {
        "city": "In\u00edrida", 
        "lat": "3.8540", 
        "lng": "-67.9061", 
        "country": "Colombia", 
        "iso2": "CO", 
        "admin_name": "Guain\u00eda", 
        "capital": "admin", 
        "population": "9065", 
        "population_proper": "7298"
    }, 
    {
        "city": "Puerto Nari\u00f1o", 
        "lat": "-3.7703", 
        "lng": "-70.3831", 
        "country": "Colombia", 
        "iso2": "CO", 
        "admin_name": "Amazonas", 
        "capital": "minor", 
        "population": "6816", 
        "population_proper": "6816"
    }, 
    {
        "city": "Orocu\u00e9", 
        "lat": "4.7946", 
        "lng": "-71.3400", 
        "country": "Colombia", 
        "iso2": "CO", 
        "admin_name": "Casanare", 
        "capital": "minor", 
        "population": "2835", 
        "population_proper": "1418"
    }, 
    {
        "city": "Nuqu\u00ed", 
        "lat": "5.6852", 
        "lng": "-77.2745", 
        "country": "Colombia", 
        "iso2": "CO", 
        "admin_name": "Choc\u00f3", 
        "capital": "minor", 
        "population": "2741", 
        "population_proper": "233"
    }, 
    {
        "city": "Jurad\u00f3", 
        "lat": "7.1114", 
        "lng": "-77.7714", 
        "country": "Colombia", 
        "iso2": "CO", 
        "admin_name": "Choc\u00f3", 
        "capital": "minor", 
        "population": "2351", 
        "population_proper": "2351"
    }, 
    {
        "city": "San Vicente del Cagu\u00e1n", 
        "lat": "2.0704", 
        "lng": "-74.6400", 
        "country": "Colombia", 
        "iso2": "CO", 
        "admin_name": "Caquet\u00e1", 
        "capital": "minor", 
        "population": "1500", 
        "population_proper": "1000"
    }, 
    {
        "city": "Guatap\u00e9", 
        "lat": "6.2325", 
        "lng": "-75.1586", 
        "country": "Colombia", 
        "iso2": "CO", 
        "admin_name": "Antioquia", 
        "capital": "minor", 
        "population": "8.363", 
        "population_proper": "8.363"
    }, 
    {
        "city": "Itag\u00fc\u00ed", 
        "lat": "6.1846", 
        "lng": "-75.5991", 
        "country": "Colombia", 
        "iso2": "CO", 
        "admin_name": "Antioquia", 
        "capital": "minor", 
        "population": "", 
        "population_proper": ""
    }, 
    {
        "city": "Envigado", 
        "lat": "6.1759", 
        "lng": "-75.5917", 
        "country": "Colombia", 
        "iso2": "CO", 
        "admin_name": "Antioquia", 
        "capital": "minor", 
        "population": "", 
        "population_proper": ""
    }, 
    {
        "city": "Sabaneta", 
        "lat": "6.1513", 
        "lng": "-75.6172", 
        "country": "Colombia", 
        "iso2": "CO", 
        "admin_name": "Antioquia", 
        "capital": "minor", 
        "population": "", 
        "population_proper": ""
    }, 
    {
        "city": "Soacha", 
        "lat": "4.5794", 
        "lng": "-74.2168", 
        "country": "Colombia", 
        "iso2": "CO", 
        "admin_name": "Cundinamarca", 
        "capital": "minor", 
        "population": "", 
        "population_proper": ""
    }, 
    {
        "city": "Floridablanca", 
        "lat": "7.0622", 
        "lng": "-73.0864", 
        "country": "Colombia", 
        "iso2": "CO", 
        "admin_name": "Santander", 
        "capital": "minor", 
        "population": "", 
        "population_proper": ""
    }, 
    {
        "city": "Dosquebradas", 
        "lat": "4.8392", 
        "lng": "-75.6673", 
        "country": "Colombia", 
        "iso2": "CO", 
        "admin_name": "Risaralda", 
        "capital": "minor", 
        "population": "", 
        "population_proper": ""
    }, 
    {
        "city": "Ch\u00eda", 
        "lat": "4.8588", 
        "lng": "-74.0587", 
        "country": "Colombia", 
        "iso2": "CO", 
        "admin_name": "Cundinamarca", 
        "capital": "minor", 
        "population": "", 
        "population_proper": ""
    }, 
    {
        "city": "La Estrella", 
        "lat": "6.1577", 
        "lng": "-75.6432", 
        "country": "Colombia", 
        "iso2": "CO", 
        "admin_name": "Antioquia", 
        "capital": "minor", 
        "population": "", 
        "population_proper": ""
    }, 
    {
        "city": "Mosquera", 
        "lat": "4.7059", 
        "lng": "-74.2302", 
        "country": "Colombia", 
        "iso2": "CO", 
        "admin_name": "Cundinamarca", 
        "capital": "minor", 
        "population": "", 
        "population_proper": ""
    }, 
    {
        "city": "Malambo", 
        "lat": "10.8595", 
        "lng": "-74.7739", 
        "country": "Colombia", 
        "iso2": "CO", 
        "admin_name": "Atl\u00e1ntico", 
        "capital": "minor", 
        "population": "", 
        "population_proper": ""
    }, 
    {
        "city": "Funza", 
        "lat": "4.7164", 
        "lng": "-74.2120", 
        "country": "Colombia", 
        "iso2": "CO", 
        "admin_name": "Cundinamarca", 
        "capital": "minor", 
        "population": "", 
        "population_proper": ""
    }, 
    {
        "city": "Cajic\u00e1", 
        "lat": "4.9186", 
        "lng": "-74.0280", 
        "country": "Colombia", 
        "iso2": "CO", 
        "admin_name": "Cundinamarca", 
        "capital": "minor", 
        "population": "", 
        "population_proper": ""
    }, 
    {
        "city": "Copacabana", 
        "lat": "6.3463", 
        "lng": "-75.5089", 
        "country": "Colombia", 
        "iso2": "CO", 
        "admin_name": "Antioquia", 
        "capital": "minor", 
        "population": "", 
        "population_proper": ""
    }, 
    {
        "city": "La Virginia", 
        "lat": "4.8997", 
        "lng": "-75.8825", 
        "country": "Colombia", 
        "iso2": "CO", 
        "admin_name": "Risaralda", 
        "capital": "minor", 
        "population": "", 
        "population_proper": ""
    }, 
    {
        "city": "Facatativ\u00e1", 
        "lat": "4.8137", 
        "lng": "-74.3545", 
        "country": "Colombia", 
        "iso2": "CO", 
        "admin_name": "Cundinamarca", 
        "capital": "minor", 
        "population": "", 
        "population_proper": ""
    }, 
    {
        "city": "Sabanagrande", 
        "lat": "10.7897", 
        "lng": "-74.7566", 
        "country": "Colombia", 
        "iso2": "CO", 
        "admin_name": "Atl\u00e1ntico", 
        "capital": "minor", 
        "population": "", 
        "population_proper": ""
    }, 
    {
        "city": "Madrid", 
        "lat": "4.7324", 
        "lng": "-74.2642", 
        "country": "Colombia", 
        "iso2": "CO", 
        "admin_name": "Cundinamarca", 
        "capital": "minor", 
        "population": "", 
        "population_proper": ""
    }, 
    {
        "city": "Fusagasug\u00e1", 
        "lat": "4.3365", 
        "lng": "-74.3638", 
        "country": "Colombia", 
        "iso2": "CO", 
        "admin_name": "Cundinamarca", 
        "capital": "minor", 
        "population": "", 
        "population_proper": ""
    }, 
    {
        "city": "Los Patios", 
        "lat": "7.8379", 
        "lng": "-72.5037", 
        "country": "Colombia", 
        "iso2": "CO", 
        "admin_name": "Norte de Santander", 
        "capital": "minor", 
        "population": "", 
        "population_proper": ""
    }, 
    {
        "city": "Zipaquir\u00e1", 
        "lat": "5.0221", 
        "lng": "-74.0048", 
        "country": "Colombia", 
        "iso2": "CO", 
        "admin_name": "Cundinamarca", 
        "capital": "minor", 
        "population": "", 
        "population_proper": ""
    }, 
    {
        "city": "Girardota", 
        "lat": "6.3775", 
        "lng": "-75.4488", 
        "country": "Colombia", 
        "iso2": "CO", 
        "admin_name": "Antioquia", 
        "capital": "minor", 
        "population": "", 
        "population_proper": ""
    }, 
    {
        "city": "Tocancip\u00e1", 
        "lat": "4.9653", 
        "lng": "-73.9130", 
        "country": "Colombia", 
        "iso2": "CO", 
        "admin_name": "Cundinamarca", 
        "capital": "minor", 
        "population": "", 
        "population_proper": ""
    }, 
    {
        "city": "Caldas", 
        "lat": "6.0911", 
        "lng": "-75.6357", 
        "country": "Colombia", 
        "iso2": "CO", 
        "admin_name": "Antioquia", 
        "capital": "minor", 
        "population": "", 
        "population_proper": ""
    }, 
    {
        "city": "Rionegro", 
        "lat": "6.1551", 
        "lng": "-75.3737", 
        "country": "Colombia", 
        "iso2": "CO", 
        "admin_name": "Antioquia", 
        "capital": "minor", 
        "population": "", 
        "population_proper": ""
    }, 
    {
        "city": "Barbosa", 
        "lat": "5.9317", 
        "lng": "-73.6151", 
        "country": "Colombia", 
        "iso2": "CO", 
        "admin_name": "Santander", 
        "capital": "minor", 
        "population": "", 
        "population_proper": ""
    }, 
    {
        "city": "San Jos\u00e9", 
        "lat": "1.4745", 
        "lng": "-77.0814", 
        "country": "Colombia", 
        "iso2": "CO", 
        "admin_name": "Nari\u00f1o", 
        "capital": "minor", 
        "population": "", 
        "population_proper": ""
    }, 
    {
        "city": "Galapa", 
        "lat": "10.8969", 
        "lng": "-74.8860", 
        "country": "Colombia", 
        "iso2": "CO", 
        "admin_name": "Atl\u00e1ntico", 
        "capital": "minor", 
        "population": "", 
        "population_proper": ""
    }, 
    {
        "city": "Cota", 
        "lat": "4.8094", 
        "lng": "-74.0980", 
        "country": "Colombia", 
        "iso2": "CO", 
        "admin_name": "Cundinamarca", 
        "capital": "minor", 
        "population": "", 
        "population_proper": ""
    }, 
    {
        "city": "Yumbo", 
        "lat": "3.5823", 
        "lng": "-76.4915", 
        "country": "Colombia", 
        "iso2": "CO", 
        "admin_name": "Valle del Cauca", 
        "capital": "minor", 
        "population": "", 
        "population_proper": ""
    }, 
    {
        "city": "Alcal\u00e1", 
        "lat": "4.6747", 
        "lng": "-75.7825", 
        "country": "Colombia", 
        "iso2": "CO", 
        "admin_name": "Valle del Cauca", 
        "capital": "minor", 
        "population": "", 
        "population_proper": ""
    }, 
    {
        "city": "La Tebaida", 
        "lat": "4.4526", 
        "lng": "-75.7875", 
        "country": "Colombia", 
        "iso2": "CO", 
        "admin_name": "Quind\u00edo", 
        "capital": "minor", 
        "population": "", 
        "population_proper": ""
    }, 
    {
        "city": "Baranoa", 
        "lat": "10.7941", 
        "lng": "-74.9164", 
        "country": "Colombia", 
        "iso2": "CO", 
        "admin_name": "Atl\u00e1ntico", 
        "capital": "minor", 
        "population": "", 
        "population_proper": ""
    }, 
    {
        "city": "Tabio", 
        "lat": "4.9173", 
        "lng": "-74.0936", 
        "country": "Colombia", 
        "iso2": "CO", 
        "admin_name": "Cundinamarca", 
        "capital": "minor", 
        "population": "", 
        "population_proper": ""
    }, 
    {
        "city": "Marinilla", 
        "lat": "6.1736", 
        "lng": "-75.3362", 
        "country": "Colombia", 
        "iso2": "CO", 
        "admin_name": "Antioquia", 
        "capital": "minor", 
        "population": "", 
        "population_proper": ""
    }, 
    {
        "city": "Turbaco", 
        "lat": "10.3294", 
        "lng": "-75.4114", 
        "country": "Colombia", 
        "iso2": "CO", 
        "admin_name": "Bol\u00edvar", 
        "capital": "minor", 
        "population": "", 
        "population_proper": ""
    }, 
    {
        "city": "Chinchin\u00e1", 
        "lat": "4.9825", 
        "lng": "-75.6036", 
        "country": "Colombia", 
        "iso2": "CO", 
        "admin_name": "Caldas", 
        "capital": "minor", 
        "population": "", 
        "population_proper": ""
    }, 
    {
        "city": "Gachancip\u00e1", 
        "lat": "4.9911", 
        "lng": "-73.8715", 
        "country": "Colombia", 
        "iso2": "CO", 
        "admin_name": "Cundinamarca", 
        "capital": "minor", 
        "population": "", 
        "population_proper": ""
    }, 
    {
        "city": "Puerto Colombia", 
        "lat": "10.9878", 
        "lng": "-74.9547", 
        "country": "Colombia", 
        "iso2": "CO", 
        "admin_name": "Atl\u00e1ntico", 
        "capital": "minor", 
        "population": "", 
        "population_proper": ""
    }, 
    {
        "city": "La Ceja", 
        "lat": "6.0308", 
        "lng": "-75.4315", 
        "country": "Colombia", 
        "iso2": "CO", 
        "admin_name": "Antioquia", 
        "capital": "minor", 
        "population": "", 
        "population_proper": ""
    }, 
    {
        "city": "Gir\u00f3n", 
        "lat": "7.0682", 
        "lng": "-73.1698", 
        "country": "Colombia", 
        "iso2": "CO", 
        "admin_name": "Santander", 
        "capital": "minor", 
        "population": "", 
        "population_proper": ""
    }, 
    {
        "city": "Santuario", 
        "lat": "6.1383", 
        "lng": "-75.2642", 
        "country": "Colombia", 
        "iso2": "CO", 
        "admin_name": "Antioquia", 
        "capital": "minor", 
        "population": "", 
        "population_proper": ""
    }, 
    {
        "city": "Puerto Tejada", 
        "lat": "3.2311", 
        "lng": "-76.4167", 
        "country": "Colombia", 
        "iso2": "CO", 
        "admin_name": "Cauca", 
        "capital": "minor", 
        "population": "", 
        "population_proper": ""
    }, 
    {
        "city": "Villa de San Diego de Ubat\u00e9", 
        "lat": "5.3093", 
        "lng": "-73.8157", 
        "country": "Colombia", 
        "iso2": "CO", 
        "admin_name": "Cundinamarca", 
        "capital": "minor", 
        "population": "", 
        "population_proper": ""
    }, 
    {
        "city": "Amag\u00e1", 
        "lat": "6.0400", 
        "lng": "-75.7032", 
        "country": "Colombia", 
        "iso2": "CO", 
        "admin_name": "Antioquia", 
        "capital": "minor", 
        "population": "", 
        "population_proper": ""
    }, 
    {
        "city": "Espinal", 
        "lat": "4.1492", 
        "lng": "-74.8843", 
        "country": "Colombia", 
        "iso2": "CO", 
        "admin_name": "Tolima", 
        "capital": "minor", 
        "population": "", 
        "population_proper": ""
    }, 
    {
        "city": "Calarc\u00e1", 
        "lat": "4.5295", 
        "lng": "-75.6409", 
        "country": "Colombia", 
        "iso2": "CO", 
        "admin_name": "Quind\u00edo", 
        "capital": "minor", 
        "population": "", 
        "population_proper": ""
    }, 
    {
        "city": "Ceret\u00e9", 
        "lat": "8.8848", 
        "lng": "-75.7905", 
        "country": "Colombia", 
        "iso2": "CO", 
        "admin_name": "C\u00f3rdoba", 
        "capital": "minor", 
        "population": "", 
        "population_proper": ""
    }, 
    {
        "city": "Sibat\u00e9", 
        "lat": "4.4915", 
        "lng": "-74.2596", 
        "country": "Colombia", 
        "iso2": "CO", 
        "admin_name": "Cundinamarca", 
        "capital": "minor", 
        "population": "", 
        "population_proper": ""
    }, 
    {
        "city": "Sesquil\u00e9", 
        "lat": "5.0446", 
        "lng": "-73.7972", 
        "country": "Colombia", 
        "iso2": "CO", 
        "admin_name": "Cundinamarca", 
        "capital": "minor", 
        "population": "", 
        "population_proper": ""
    }, 
    {
        "city": "Santo Tom\u00e1s", 
        "lat": "10.7577", 
        "lng": "-74.7545", 
        "country": "Colombia", 
        "iso2": "CO", 
        "admin_name": "Atl\u00e1ntico", 
        "capital": "minor", 
        "population": "", 
        "population_proper": ""
    }, 
    {
        "city": "Flandes", 
        "lat": "4.2840", 
        "lng": "-74.8142", 
        "country": "Colombia", 
        "iso2": "CO", 
        "admin_name": "Tolima", 
        "capital": "minor", 
        "population": "", 
        "population_proper": ""
    }, 
    {
        "city": "Palmar de Varela", 
        "lat": "10.7405", 
        "lng": "-74.7544", 
        "country": "Colombia", 
        "iso2": "CO", 
        "admin_name": "Atl\u00e1ntico", 
        "capital": "minor", 
        "population": "", 
        "population_proper": ""
    }, 
    {
        "city": "Piedecuesta", 
        "lat": "6.9879", 
        "lng": "-73.0495", 
        "country": "Colombia", 
        "iso2": "CO", 
        "admin_name": "Santander", 
        "capital": "minor", 
        "population": "", 
        "population_proper": ""
    }, 
    {
        "city": "Nobsa", 
        "lat": "5.7698", 
        "lng": "-72.9410", 
        "country": "Colombia", 
        "iso2": "CO", 
        "admin_name": "Boyac\u00e1", 
        "capital": "minor", 
        "population": "", 
        "population_proper": ""
    }, 
    {
        "city": "San Gil", 
        "lat": "6.5557", 
        "lng": "-73.1331", 
        "country": "Colombia", 
        "iso2": "CO", 
        "admin_name": "Santander", 
        "capital": "minor", 
        "population": "", 
        "population_proper": ""
    }, 
    {
        "city": "M\u00e1laga", 
        "lat": "6.6990", 
        "lng": "-72.7323", 
        "country": "Colombia", 
        "iso2": "CO", 
        "admin_name": "Santander", 
        "capital": "minor", 
        "population": "", 
        "population_proper": ""
    }, 
    {
        "city": "La Uni\u00f3n", 
        "lat": "4.5328", 
        "lng": "-76.1032", 
        "country": "Colombia", 
        "iso2": "CO", 
        "admin_name": "Valle del Cauca", 
        "capital": "minor", 
        "population": "", 
        "population_proper": ""
    }, 
    {
        "city": "Circasia", 
        "lat": "4.6189", 
        "lng": "-75.6358", 
        "country": "Colombia", 
        "iso2": "CO", 
        "admin_name": "Quind\u00edo", 
        "capital": "minor", 
        "population": "", 
        "population_proper": ""
    }, 
    {
        "city": "San Bernardo", 
        "lat": "1.5152", 
        "lng": "-77.0468", 
        "country": "Colombia", 
        "iso2": "CO", 
        "admin_name": "Nari\u00f1o", 
        "capital": "minor", 
        "population": "", 
        "population_proper": ""
    }, 
    {
        "city": "Palmira", 
        "lat": "3.5394", 
        "lng": "-76.3036", 
        "country": "Colombia", 
        "iso2": "CO", 
        "admin_name": "Valle del Cauca", 
        "capital": "minor", 
        "population": "", 
        "population_proper": ""
    }, 
    {
        "city": "Sop\u00f3", 
        "lat": "4.9075", 
        "lng": "-73.9384", 
        "country": "Colombia", 
        "iso2": "CO", 
        "admin_name": "Cundinamarca", 
        "capital": "minor", 
        "population": "", 
        "population_proper": ""
    }, 
    {
        "city": "Providencia", 
        "lat": "1.2391", 
        "lng": "-77.5972", 
        "country": "Colombia", 
        "iso2": "CO", 
        "admin_name": "Nari\u00f1o", 
        "capital": "minor", 
        "population": "", 
        "population_proper": ""
    }, 
    {
        "city": "Cove\u00f1as", 
        "lat": "9.4025", 
        "lng": "-75.6803", 
        "country": "Colombia", 
        "iso2": "CO", 
        "admin_name": "Sucre", 
        "capital": "minor", 
        "population": "", 
        "population_proper": ""
    }, 
    {
        "city": "Montenegro", 
        "lat": "4.5664", 
        "lng": "-75.7511", 
        "country": "Colombia", 
        "iso2": "CO", 
        "admin_name": "Quind\u00edo", 
        "capital": "minor", 
        "population": "", 
        "population_proper": ""
    }, 
    {
        "city": "Ponedera", 
        "lat": "10.6430", 
        "lng": "-74.7539", 
        "country": "Colombia", 
        "iso2": "CO", 
        "admin_name": "Atl\u00e1ntico", 
        "capital": "minor", 
        "population": "", 
        "population_proper": ""
    }, 
    {
        "city": "Pinillos", 
        "lat": "8.9192", 
        "lng": "-74.4677", 
        "country": "Colombia", 
        "iso2": "CO", 
        "admin_name": "Bol\u00edvar", 
        "capital": "minor", 
        "population": "", 
        "population_proper": ""
    }, 
    {
        "city": "Candelaria", 
        "lat": "3.4067", 
        "lng": "-76.3482", 
        "country": "Colombia", 
        "iso2": "CO", 
        "admin_name": "Valle del Cauca", 
        "capital": "minor", 
        "population": "", 
        "population_proper": ""
    }, 
    {
        "city": "Apartad\u00f3", 
        "lat": "7.8830", 
        "lng": "-76.6259", 
        "country": "Colombia", 
        "iso2": "CO", 
        "admin_name": "Antioquia", 
        "capital": "minor", 
        "population": "", 
        "population_proper": ""
    }, 
    {
        "city": "Guarne", 
        "lat": "6.2805", 
        "lng": "-75.4435", 
        "country": "Colombia", 
        "iso2": "CO", 
        "admin_name": "Antioquia", 
        "capital": "minor", 
        "population": "", 
        "population_proper": ""
    }, 
    {
        "city": "Guateque", 
        "lat": "5.0062", 
        "lng": "-73.4727", 
        "country": "Colombia", 
        "iso2": "CO", 
        "admin_name": "Boyac\u00e1", 
        "capital": "minor", 
        "population": "", 
        "population_proper": ""
    }, 
    {
        "city": "Piendam\u00f3", 
        "lat": "2.6479", 
        "lng": "-76.5348", 
        "country": "Colombia", 
        "iso2": "CO", 
        "admin_name": "Cauca", 
        "capital": "minor", 
        "population": "", 
        "population_proper": ""
    }, 
    {
        "city": "Jamund\u00ed", 
        "lat": "3.2607", 
        "lng": "-76.5350", 
        "country": "Colombia", 
        "iso2": "CO", 
        "admin_name": "Valle del Cauca", 
        "capital": "minor", 
        "population": "", 
        "population_proper": ""
    }, 
    {
        "city": "Miranda", 
        "lat": "3.2528", 
        "lng": "-76.2292", 
        "country": "Colombia", 
        "iso2": "CO", 
        "admin_name": "Cauca", 
        "capital": "minor", 
        "population": "", 
        "population_proper": ""
    }, 
    {
        "city": "San Andr\u00e9s de Sotavento", 
        "lat": "9.1448", 
        "lng": "-75.5088", 
        "country": "Colombia", 
        "iso2": "CO", 
        "admin_name": "C\u00f3rdoba", 
        "capital": "minor", 
        "population": "", 
        "population_proper": ""
    }, 
    {
        "city": "Tuch\u00edn", 
        "lat": "9.1866", 
        "lng": "-75.5547", 
        "country": "Colombia", 
        "iso2": "CO", 
        "admin_name": "C\u00f3rdoba", 
        "capital": "minor", 
        "population": "", 
        "population_proper": ""
    }, 
    {
        "city": "Sandon\u00e1", 
        "lat": "1.2863", 
        "lng": "-77.4692", 
        "country": "Colombia", 
        "iso2": "CO", 
        "admin_name": "Nari\u00f1o", 
        "capital": "minor", 
        "population": "", 
        "population_proper": ""
    }, 
    {
        "city": "Quimbaya", 
        "lat": "4.6333", 
        "lng": "-75.7667", 
        "country": "Colombia", 
        "iso2": "CO", 
        "admin_name": "Quind\u00edo", 
        "capital": "minor", 
        "population": "", 
        "population_proper": ""
    }, 
    {
        "city": "Sahag\u00fan", 
        "lat": "8.9462", 
        "lng": "-75.4427", 
        "country": "Colombia", 
        "iso2": "CO", 
        "admin_name": "C\u00f3rdoba", 
        "capital": "minor", 
        "population": "", 
        "population_proper": ""
    }, 
    {
        "city": "Marmato", 
        "lat": "5.4750", 
        "lng": "-75.6004", 
        "country": "Colombia", 
        "iso2": "CO", 
        "admin_name": "Caldas", 
        "capital": "minor", 
        "population": "", 
        "population_proper": ""
    }, 
    {
        "city": "Barbosa", 
        "lat": "6.4381", 
        "lng": "-75.3314", 
        "country": "Colombia", 
        "iso2": "CO", 
        "admin_name": "Antioquia", 
        "capital": "minor", 
        "population": "", 
        "population_proper": ""
    }, 
    {
        "city": "Corozal", 
        "lat": "9.3185", 
        "lng": "-75.2933", 
        "country": "Colombia", 
        "iso2": "CO", 
        "admin_name": "Sucre", 
        "capital": "minor", 
        "population": "", 
        "population_proper": ""
    }, 
    {
        "city": "Suan", 
        "lat": "10.3335", 
        "lng": "-74.8802", 
        "country": "Colombia", 
        "iso2": "CO", 
        "admin_name": "Atl\u00e1ntico", 
        "capital": "minor", 
        "population": "", 
        "population_proper": ""
    }, 
    {
        "city": "Santa Isabel", 
        "lat": "13.3817", 
        "lng": "-81.3689", 
        "country": "Colombia", 
        "iso2": "CO", 
        "admin_name": "San Andr\u00e9s y Providencia", 
        "capital": "minor", 
        "population": "", 
        "population_proper": ""
    }, 
    {
        "city": "Cisneros", 
        "lat": "6.5383", 
        "lng": "-75.0886", 
        "country": "Colombia", 
        "iso2": "CO", 
        "admin_name": "Antioquia", 
        "capital": "minor", 
        "population": "", 
        "population_proper": ""
    }, 
    {
        "city": "La Mesa", 
        "lat": "4.6303", 
        "lng": "-74.4625", 
        "country": "Colombia", 
        "iso2": "CO", 
        "admin_name": "Cundinamarca", 
        "capital": "minor", 
        "population": "", 
        "population_proper": ""
    }, 
    {
        "city": "Sup\u00eda", 
        "lat": "5.4530", 
        "lng": "-75.6507", 
        "country": "Colombia", 
        "iso2": "CO", 
        "admin_name": "Caldas", 
        "capital": "minor", 
        "population": "", 
        "population_proper": ""
    }, 
    {
        "city": "Pitalito", 
        "lat": "1.8497", 
        "lng": "-76.0478", 
        "country": "Colombia", 
        "iso2": "CO", 
        "admin_name": "Huila", 
        "capital": "minor", 
        "population": "", 
        "population_proper": ""
    }, 
    {
        "city": "Polonuevo", 
        "lat": "10.7770", 
        "lng": "-74.8534", 
        "country": "Colombia", 
        "iso2": "CO", 
        "admin_name": "Atl\u00e1ntico", 
        "capital": "minor", 
        "population": "", 
        "population_proper": ""
    }, 
    {
        "city": "Guacar\u00ed", 
        "lat": "3.7638", 
        "lng": "-76.3329", 
        "country": "Colombia", 
        "iso2": "CO", 
        "admin_name": "Valle del Cauca", 
        "capital": "minor", 
        "population": "", 
        "population_proper": ""
    }, 
    {
        "city": "Villa Rica", 
        "lat": "3.1748", 
        "lng": "-76.4620", 
        "country": "Colombia", 
        "iso2": "CO", 
        "admin_name": "Cauca", 
        "capital": "minor", 
        "population": "", 
        "population_proper": ""
    }, 
    {
        "city": "Quinch\u00eda", 
        "lat": "5.3396", 
        "lng": "-75.7302", 
        "country": "Colombia", 
        "iso2": "CO", 
        "admin_name": "Risaralda", 
        "capital": "minor", 
        "population": "", 
        "population_proper": ""
    }, 
    {
        "city": "Melgar", 
        "lat": "4.2047", 
        "lng": "-74.6407", 
        "country": "Colombia", 
        "iso2": "CO", 
        "admin_name": "Tolima", 
        "capital": "minor", 
        "population": "", 
        "population_proper": ""
    }, 
    {
        "city": "Palmar", 
        "lat": "6.5377", 
        "lng": "-73.2923", 
        "country": "Colombia", 
        "iso2": "CO", 
        "admin_name": "Santander", 
        "capital": "minor", 
        "population": "", 
        "population_proper": ""
    }, 
    {
        "city": "El Rosal", 
        "lat": "4.8531", 
        "lng": "-74.2600", 
        "country": "Colombia", 
        "iso2": "CO", 
        "admin_name": "Cundinamarca", 
        "capital": "minor", 
        "population": "", 
        "population_proper": ""
    }, 
    {
        "city": "Puerto Santander", 
        "lat": "8.3636", 
        "lng": "-72.4075", 
        "country": "Colombia", 
        "iso2": "CO", 
        "admin_name": "Norte de Santander", 
        "capital": "minor", 
        "population": "", 
        "population_proper": ""
    }, 
    {
        "city": "Granada", 
        "lat": "3.5462", 
        "lng": "-73.7069", 
        "country": "Colombia", 
        "iso2": "CO", 
        "admin_name": "Meta", 
        "capital": "minor", 
        "population": "", 
        "population_proper": ""
    }, 
    {
        "city": "Sibundoy", 
        "lat": "1.2024", 
        "lng": "-76.9177", 
        "country": "Colombia", 
        "iso2": "CO", 
        "admin_name": "Putumayo", 
        "capital": "minor", 
        "population": "", 
        "population_proper": ""
    }, 
    {
        "city": "Cotorra", 
        "lat": "9.0389", 
        "lng": "-75.7897", 
        "country": "Colombia", 
        "iso2": "CO", 
        "admin_name": "C\u00f3rdoba", 
        "capital": "minor", 
        "population": "", 
        "population_proper": ""
    }, 
    {
        "city": "El Colegio", 
        "lat": "4.5810", 
        "lng": "-74.4429", 
        "country": "Colombia", 
        "iso2": "CO", 
        "admin_name": "Cundinamarca", 
        "capital": "minor", 
        "population": "", 
        "population_proper": ""
    }, 
    {
        "city": "Cachipay", 
        "lat": "4.7304", 
        "lng": "-74.4366", 
        "country": "Colombia", 
        "iso2": "CO", 
        "admin_name": "Cundinamarca", 
        "capital": "minor", 
        "population": "", 
        "population_proper": ""
    }, 
    {
        "city": "Gualmat\u00e1n", 
        "lat": "0.9199", 
        "lng": "-77.5674", 
        "country": "Colombia", 
        "iso2": "CO", 
        "admin_name": "Nari\u00f1o", 
        "capital": "minor", 
        "population": "", 
        "population_proper": ""
    }, 
    {
        "city": "Sampu\u00e9s", 
        "lat": "9.1836", 
        "lng": "-75.3817", 
        "country": "Colombia", 
        "iso2": "CO", 
        "admin_name": "Sucre", 
        "capital": "minor", 
        "population": "", 
        "population_proper": ""
    }, 
    {
        "city": "Santander de Quilichao", 
        "lat": "3.0095", 
        "lng": "-76.4849", 
        "country": "Colombia", 
        "iso2": "CO", 
        "admin_name": "Cauca", 
        "capital": "minor", 
        "population": "", 
        "population_proper": ""
    }, 
    {
        "city": "Buenos Aires", 
        "lat": "3.0150", 
        "lng": "-76.6428", 
        "country": "Colombia", 
        "iso2": "CO", 
        "admin_name": "Cauca", 
        "capital": "minor", 
        "population": "", 
        "population_proper": ""
    }, 
    {
        "city": "Bel\u00e9n", 
        "lat": "1.5979", 
        "lng": "-77.0140", 
        "country": "Colombia", 
        "iso2": "CO", 
        "admin_name": "Nari\u00f1o", 
        "capital": "minor", 
        "population": "", 
        "population_proper": ""
    }, 
    {
        "city": "Cogua", 
        "lat": "5.0605", 
        "lng": "-73.9793", 
        "country": "Colombia", 
        "iso2": "CO", 
        "admin_name": "Cundinamarca", 
        "capital": "minor", 
        "population": "", 
        "population_proper": ""
    }, 
    {
        "city": "Recetor", 
        "lat": "5.2295", 
        "lng": "-72.7610", 
        "country": "Colombia", 
        "iso2": "CO", 
        "admin_name": "Casanare", 
        "capital": "minor", 
        "population": "", 
        "population_proper": ""
    }, 
    {
        "city": "Coello", 
        "lat": "4.2891", 
        "lng": "-74.8982", 
        "country": "Colombia", 
        "iso2": "CO", 
        "admin_name": "Tolima", 
        "capital": "minor", 
        "population": "", 
        "population_proper": ""
    }, 
    {
        "city": "Tena", 
        "lat": "4.6600", 
        "lng": "-74.3926", 
        "country": "Colombia", 
        "iso2": "CO", 
        "admin_name": "Cundinamarca", 
        "capital": "minor", 
        "population": "", 
        "population_proper": ""
    }, 
    {
        "city": "Timb\u00edo", 
        "lat": "2.3502", 
        "lng": "-76.6834", 
        "country": "Colombia", 
        "iso2": "CO", 
        "admin_name": "Cauca", 
        "capital": "minor", 
        "population": "", 
        "population_proper": ""
    }, 
    {
        "city": "Tibasosa", 
        "lat": "5.7500", 
        "lng": "-73.0000", 
        "country": "Colombia", 
        "iso2": "CO", 
        "admin_name": "Boyac\u00e1", 
        "capital": "minor", 
        "population": "", 
        "population_proper": ""
    }, 
    {
        "city": "Tenjo", 
        "lat": "4.8727", 
        "lng": "-74.1444", 
        "country": "Colombia", 
        "iso2": "CO", 
        "admin_name": "Cundinamarca", 
        "capital": "minor", 
        "population": "", 
        "population_proper": ""
    }, 
    {
        "city": "G\u00e9nova", 
        "lat": "1.6437", 
        "lng": "-77.0192", 
        "country": "Colombia", 
        "iso2": "CO", 
        "admin_name": "Nari\u00f1o", 
        "capital": "minor", 
        "population": "", 
        "population_proper": ""
    }, 
    {
        "city": "Granada", 
        "lat": "4.5200", 
        "lng": "-74.3526", 
        "country": "Colombia", 
        "iso2": "CO", 
        "admin_name": "Cundinamarca", 
        "capital": "minor", 
        "population": "", 
        "population_proper": ""
    }, 
    {
        "city": "Marquetalia", 
        "lat": "5.2966", 
        "lng": "-75.0550", 
        "country": "Colombia", 
        "iso2": "CO", 
        "admin_name": "Caldas", 
        "capital": "minor", 
        "population": "", 
        "population_proper": ""
    }, 
    {
        "city": "Santa Rosa", 
        "lat": "10.4447", 
        "lng": "-75.3697", 
        "country": "Colombia", 
        "iso2": "CO", 
        "admin_name": "Bol\u00edvar", 
        "capital": "minor", 
        "population": "", 
        "population_proper": ""
    }, 
    {
        "city": "La Uni\u00f3n", 
        "lat": "1.6045", 
        "lng": "-77.1315", 
        "country": "Colombia", 
        "iso2": "CO", 
        "admin_name": "Nari\u00f1o", 
        "capital": "minor", 
        "population": "", 
        "population_proper": ""
    }, 
    {
        "city": "Villeta", 
        "lat": "5.0089", 
        "lng": "-74.4723", 
        "country": "Colombia", 
        "iso2": "CO", 
        "admin_name": "Cundinamarca", 
        "capital": "minor", 
        "population": "", 
        "population_proper": ""
    }, 
    {
        "city": "Riosucio", 
        "lat": "5.4216", 
        "lng": "-75.7032", 
        "country": "Colombia", 
        "iso2": "CO", 
        "admin_name": "Caldas", 
        "capital": "minor", 
        "population": "", 
        "population_proper": ""
    }, 
    {
        "city": "Motavita", 
        "lat": "5.5765", 
        "lng": "-73.3670", 
        "country": "Colombia", 
        "iso2": "CO", 
        "admin_name": "Boyac\u00e1", 
        "capital": "minor", 
        "population": "", 
        "population_proper": ""
    }, 
    {
        "city": "Pe\u00f1ol", 
        "lat": "6.2191", 
        "lng": "-75.2433", 
        "country": "Colombia", 
        "iso2": "CO", 
        "admin_name": "Antioquia", 
        "capital": "minor", 
        "population": "", 
        "population_proper": ""
    }, 
    {
        "city": "Tiquisio", 
        "lat": "8.5564", 
        "lng": "-74.2633", 
        "country": "Colombia", 
        "iso2": "CO", 
        "admin_name": "Bol\u00edvar", 
        "capital": "minor", 
        "population": "", 
        "population_proper": ""
    }, 
    {
        "city": "San Pablo", 
        "lat": "1.6715", 
        "lng": "-77.0141", 
        "country": "Colombia", 
        "iso2": "CO", 
        "admin_name": "Nari\u00f1o", 
        "capital": "minor", 
        "population": "", 
        "population_proper": ""
    }, 
    {
        "city": "Campo de la Cruz", 
        "lat": "10.3781", 
        "lng": "-74.8836", 
        "country": "Colombia", 
        "iso2": "CO", 
        "admin_name": "Atl\u00e1ntico", 
        "capital": "minor", 
        "population": "", 
        "population_proper": ""
    }, 
    {
        "city": "Gu\u00e1tica", 
        "lat": "5.3157", 
        "lng": "-75.7983", 
        "country": "Colombia", 
        "iso2": "CO", 
        "admin_name": "Risaralda", 
        "capital": "minor", 
        "population": "", 
        "population_proper": ""
    }, 
    {
        "city": "Clemencia", 
        "lat": "10.5665", 
        "lng": "-75.3250", 
        "country": "Colombia", 
        "iso2": "CO", 
        "admin_name": "Bol\u00edvar", 
        "capital": "minor", 
        "population": "", 
        "population_proper": ""
    }, 
    {
        "city": "Pradera", 
        "lat": "3.4211", 
        "lng": "-76.2447", 
        "country": "Colombia", 
        "iso2": "CO", 
        "admin_name": "Valle del Cauca", 
        "capital": "minor", 
        "population": "", 
        "population_proper": ""
    }, 
    {
        "city": "Villamar\u00eda", 
        "lat": "5.0457", 
        "lng": "-75.5147", 
        "country": "Colombia", 
        "iso2": "CO", 
        "admin_name": "Caldas", 
        "capital": "minor", 
        "population": "", 
        "population_proper": ""
    }, 
    {
        "city": "Contadero", 
        "lat": "0.9084", 
        "lng": "-77.5477", 
        "country": "Colombia", 
        "iso2": "CO", 
        "admin_name": "Nari\u00f1o", 
        "capital": "minor", 
        "population": "", 
        "population_proper": ""
    }, 
    {
        "city": "Nilo", 
        "lat": "4.3060", 
        "lng": "-74.6208", 
        "country": "Colombia", 
        "iso2": "CO", 
        "admin_name": "Cundinamarca", 
        "capital": "minor", 
        "population": "", 
        "population_proper": ""
    }, 
    {
        "city": "Guachav\u00e9s", 
        "lat": "1.2224", 
        "lng": "-77.6777", 
        "country": "Colombia", 
        "iso2": "CO", 
        "admin_name": "Nari\u00f1o", 
        "capital": "minor", 
        "population": "", 
        "population_proper": ""
    }, 
    {
        "city": "La Pintada", 
        "lat": "5.7487", 
        "lng": "-75.6063", 
        "country": "Colombia", 
        "iso2": "CO", 
        "admin_name": "Antioquia", 
        "capital": "minor", 
        "population": "", 
        "population_proper": ""
    }, 
    {
        "city": "Pupiales", 
        "lat": "0.8714", 
        "lng": "-77.6403", 
        "country": "Colombia", 
        "iso2": "CO", 
        "admin_name": "Nari\u00f1o", 
        "capital": "minor", 
        "population": "", 
        "population_proper": ""
    }, 
    {
        "city": "Marsella", 
        "lat": "4.9372", 
        "lng": "-75.7378", 
        "country": "Colombia", 
        "iso2": "CO", 
        "admin_name": "Risaralda", 
        "capital": "minor", 
        "population": "", 
        "population_proper": ""
    }, 
    {
        "city": "Susa", 
        "lat": "5.4519", 
        "lng": "-73.8144", 
        "country": "Colombia", 
        "iso2": "CO", 
        "admin_name": "Cundinamarca", 
        "capital": "minor", 
        "population": "", 
        "population_proper": ""
    }, 
    {
        "city": "Ulloa", 
        "lat": "4.7044", 
        "lng": "-75.7403", 
        "country": "Colombia", 
        "iso2": "CO", 
        "admin_name": "Valle del Cauca", 
        "capital": "minor", 
        "population": "", 
        "population_proper": ""
    }, 
    {
        "city": "Villanueva", 
        "lat": "10.4436", 
        "lng": "-75.2731", 
        "country": "Colombia", 
        "iso2": "CO", 
        "admin_name": "Bol\u00edvar", 
        "capital": "minor", 
        "population": "", 
        "population_proper": ""
    }, 
    {
        "city": "Cicuco", 
        "lat": "9.2776", 
        "lng": "-74.6431", 
        "country": "Colombia", 
        "iso2": "CO", 
        "admin_name": "Bol\u00edvar", 
        "capital": "minor", 
        "population": "", 
        "population_proper": ""
    }, 
    {
        "city": "La Dorada", 
        "lat": "5.4478", 
        "lng": "-74.6631", 
        "country": "Colombia", 
        "iso2": "CO", 
        "admin_name": "Caldas", 
        "capital": "minor", 
        "population": "", 
        "population_proper": ""
    }, 
    {
        "city": "Florida", 
        "lat": "3.3223", 
        "lng": "-76.2348", 
        "country": "Colombia", 
        "iso2": "CO", 
        "admin_name": "Valle del Cauca", 
        "capital": "minor", 
        "population": "", 
        "population_proper": ""
    }, 
    {
        "city": "San Crist\u00f3bal", 
        "lat": "10.3952", 
        "lng": "-75.0656", 
        "country": "Colombia", 
        "iso2": "CO", 
        "admin_name": "Bol\u00edvar", 
        "capital": "minor", 
        "population": "", 
        "population_proper": ""
    }, 
    {
        "city": "L\u00edbano", 
        "lat": "4.9218", 
        "lng": "-75.0623", 
        "country": "Colombia", 
        "iso2": "CO", 
        "admin_name": "Tolima", 
        "capital": "minor", 
        "population": "", 
        "population_proper": ""
    }, 
    {
        "city": "San Bernardo del Viento", 
        "lat": "9.3533", 
        "lng": "-75.9524", 
        "country": "Colombia", 
        "iso2": "CO", 
        "admin_name": "C\u00f3rdoba", 
        "capital": "minor", 
        "population": "", 
        "population_proper": ""
    }, 
    {
        "city": "San Antonio del Tequendama", 
        "lat": "4.6162", 
        "lng": "-74.3520", 
        "country": "Colombia", 
        "iso2": "CO", 
        "admin_name": "Cundinamarca", 
        "capital": "minor", 
        "population": "", 
        "population_proper": ""
    }, 
    {
        "city": "Bel\u00e9n de Umbr\u00eda", 
        "lat": "5.2009", 
        "lng": "-75.8687", 
        "country": "Colombia", 
        "iso2": "CO", 
        "admin_name": "Risaralda", 
        "capital": "minor", 
        "population": "", 
        "population_proper": ""
    }, 
    {
        "city": "Caicedonia", 
        "lat": "4.3324", 
        "lng": "-75.8267", 
        "country": "Colombia", 
        "iso2": "CO", 
        "admin_name": "Valle del Cauca", 
        "capital": "minor", 
        "population": "", 
        "population_proper": ""
    }, 
    {
        "city": "Guadalajara de Buga", 
        "lat": "3.9009", 
        "lng": "-76.2978", 
        "country": "Colombia", 
        "iso2": "CO", 
        "admin_name": "Valle del Cauca", 
        "capital": "minor", 
        "population": "", 
        "population_proper": ""
    }, 
    {
        "city": "Andaluc\u00eda", 
        "lat": "4.1706", 
        "lng": "-76.1664", 
        "country": "Colombia", 
        "iso2": "CO", 
        "admin_name": "Valle del Cauca", 
        "capital": "minor", 
        "population": "", 
        "population_proper": ""
    }, 
    {
        "city": "Roldanillo", 
        "lat": "4.4126", 
        "lng": "-76.1546", 
        "country": "Colombia", 
        "iso2": "CO", 
        "admin_name": "Valle del Cauca", 
        "capital": "minor", 
        "population": "", 
        "population_proper": ""
    }, 
    {
        "city": "Filandia", 
        "lat": "4.6747", 
        "lng": "-75.6583", 
        "country": "Colombia", 
        "iso2": "CO", 
        "admin_name": "Quind\u00edo", 
        "capital": "minor", 
        "population": "", 
        "population_proper": ""
    }, 
    {
        "city": "Anserma", 
        "lat": "5.2348", 
        "lng": "-75.7846", 
        "country": "Colombia", 
        "iso2": "CO", 
        "admin_name": "Caldas", 
        "capital": "minor", 
        "population": "", 
        "population_proper": ""
    }, 
    {
        "city": "Prado-Sevilla", 
        "lat": "10.7634", 
        "lng": "-74.1392", 
        "country": "Colombia", 
        "iso2": "CO", 
        "admin_name": "Magdalena", 
        "capital": "minor", 
        "population": "", 
        "population_proper": ""
    }, 
    {
        "city": "Palocabildo", 
        "lat": "5.1170", 
        "lng": "-75.0173", 
        "country": "Colombia", 
        "iso2": "CO", 
        "admin_name": "Tolima", 
        "capital": "minor", 
        "population": "", 
        "population_proper": ""
    }, 
    {
        "city": "Villa de Leyva", 
        "lat": "5.6341", 
        "lng": "-73.5244", 
        "country": "Colombia", 
        "iso2": "CO", 
        "admin_name": "Boyac\u00e1", 
        "capital": "minor", 
        "population": "", 
        "population_proper": ""
    }, 
    {
        "city": "C\u00e1queza", 
        "lat": "4.4057", 
        "lng": "-73.9468", 
        "country": "Colombia", 
        "iso2": "CO", 
        "admin_name": "Cundinamarca", 
        "capital": "minor", 
        "population": "", 
        "population_proper": ""
    }, 
    {
        "city": "Puebloviejo", 
        "lat": "10.9938", 
        "lng": "-74.2844", 
        "country": "Colombia", 
        "iso2": "CO", 
        "admin_name": "Magdalena", 
        "capital": "minor", 
        "population": "", 
        "population_proper": ""
    }, 
    {
        "city": "Santa Rosa de Cabal", 
        "lat": "4.8681", 
        "lng": "-75.6214", 
        "country": "Colombia", 
        "iso2": "CO", 
        "admin_name": "Risaralda", 
        "capital": "minor", 
        "population": "", 
        "population_proper": ""
    }, 
    {
        "city": "Cabrera", 
        "lat": "6.5928", 
        "lng": "-73.2465", 
        "country": "Colombia", 
        "iso2": "CO", 
        "admin_name": "Santander", 
        "capital": "minor", 
        "population": "", 
        "population_proper": ""
    }, 
    {
        "city": "Fresno", 
        "lat": "5.1526", 
        "lng": "-75.0362", 
        "country": "Colombia", 
        "iso2": "CO", 
        "admin_name": "Tolima", 
        "capital": "minor", 
        "population": "", 
        "population_proper": ""
    }, 
    {
        "city": "Bojac\u00e1", 
        "lat": "4.7318", 
        "lng": "-74.3413", 
        "country": "Colombia", 
        "iso2": "CO", 
        "admin_name": "Cundinamarca", 
        "capital": "minor", 
        "population": "", 
        "population_proper": ""
    }, 
    {
        "city": "Cartago", 
        "lat": "1.5515", 
        "lng": "-77.1195", 
        "country": "Colombia", 
        "iso2": "CO", 
        "admin_name": "Nari\u00f1o", 
        "capital": "minor", 
        "population": "", 
        "population_proper": ""
    }, 
    {
        "city": "Santa Luc\u00eda", 
        "lat": "10.3242", 
        "lng": "-74.9602", 
        "country": "Colombia", 
        "iso2": "CO", 
        "admin_name": "Atl\u00e1ntico", 
        "capital": "minor", 
        "population": "", 
        "population_proper": ""
    }, 
    {
        "city": "Silvania", 
        "lat": "4.4037", 
        "lng": "-74.3867", 
        "country": "Colombia", 
        "iso2": "CO", 
        "admin_name": "Cundinamarca", 
        "capital": "minor", 
        "population": "", 
        "population_proper": ""
    }, 
    {
        "city": "Ospina", 
        "lat": "1.0595", 
        "lng": "-77.5655", 
        "country": "Colombia", 
        "iso2": "CO", 
        "admin_name": "Nari\u00f1o", 
        "capital": "minor", 
        "population": "", 
        "population_proper": ""
    }, 
    {
        "city": "Mo\u00f1itos", 
        "lat": "9.2455", 
        "lng": "-76.1302", 
        "country": "Colombia", 
        "iso2": "CO", 
        "admin_name": "C\u00f3rdoba", 
        "capital": "minor", 
        "population": "", 
        "population_proper": ""
    }, 
    {
        "city": "Nemoc\u00f3n", 
        "lat": "5.0677", 
        "lng": "-73.8777", 
        "country": "Colombia", 
        "iso2": "CO", 
        "admin_name": "Cundinamarca", 
        "capital": "minor", 
        "population": "", 
        "population_proper": ""
    }, 
    {
        "city": "Simijaca", 
        "lat": "5.5029", 
        "lng": "-73.8523", 
        "country": "Colombia", 
        "iso2": "CO", 
        "admin_name": "Cundinamarca", 
        "capital": "minor", 
        "population": "", 
        "population_proper": ""
    }, 
    {
        "city": "El Cerrito", 
        "lat": "3.6855", 
        "lng": "-76.3137", 
        "country": "Colombia", 
        "iso2": "CO", 
        "admin_name": "Valle del Cauca", 
        "capital": "minor", 
        "population": "", 
        "population_proper": ""
    }, 
    {
        "city": "Agua de Dios", 
        "lat": "4.3765", 
        "lng": "-74.6700", 
        "country": "Colombia", 
        "iso2": "CO", 
        "admin_name": "Cundinamarca", 
        "capital": "minor", 
        "population": "", 
        "population_proper": ""
    }, 
    {
        "city": "Carlosama", 
        "lat": "0.8629", 
        "lng": "-77.7273", 
        "country": "Colombia", 
        "iso2": "CO", 
        "admin_name": "Nari\u00f1o", 
        "capital": "minor", 
        "population": "", 
        "population_proper": ""
    }, 
    {
        "city": "Santa B\u00e1rbara", 
        "lat": "5.8746", 
        "lng": "-75.5671", 
        "country": "Colombia", 
        "iso2": "CO", 
        "admin_name": "Antioquia", 
        "capital": "minor", 
        "population": "", 
        "population_proper": ""
    }, 
    {
        "city": "Aldana", 
        "lat": "0.8828", 
        "lng": "-77.7010", 
        "country": "Colombia", 
        "iso2": "CO", 
        "admin_name": "Nari\u00f1o", 
        "capital": "minor", 
        "population": "", 
        "population_proper": ""
    }, 
    {
        "city": "Nuevo Col\u00f3n", 
        "lat": "5.3537", 
        "lng": "-73.4566", 
        "country": "Colombia", 
        "iso2": "CO", 
        "admin_name": "Boyac\u00e1", 
        "capital": "minor", 
        "population": "", 
        "population_proper": ""
    }, 
    {
        "city": "Zarzal", 
        "lat": "4.3946", 
        "lng": "-76.0715", 
        "country": "Colombia", 
        "iso2": "CO", 
        "admin_name": "Valle del Cauca", 
        "capital": "minor", 
        "population": "", 
        "population_proper": ""
    }, 
    {
        "city": "Nimaima", 
        "lat": "5.1261", 
        "lng": "-74.3849", 
        "country": "Colombia", 
        "iso2": "CO", 
        "admin_name": "Cundinamarca", 
        "capital": "minor", 
        "population": "", 
        "population_proper": ""
    }, 
    {
        "city": "Carepa", 
        "lat": "7.7585", 
        "lng": "-76.6525", 
        "country": "Colombia", 
        "iso2": "CO", 
        "admin_name": "Antioquia", 
        "capital": "minor", 
        "population": "", 
        "population_proper": ""
    }, 
    {
        "city": "Palestina", 
        "lat": "5.0161", 
        "lng": "-75.6285", 
        "country": "Colombia", 
        "iso2": "CO", 
        "admin_name": "Caldas", 
        "capital": "minor", 
        "population": "", 
        "population_proper": ""
    }, 
    {
        "city": "Berruecos", 
        "lat": "1.5040", 
        "lng": "-77.1355", 
        "country": "Colombia", 
        "iso2": "CO", 
        "admin_name": "Nari\u00f1o", 
        "capital": "minor", 
        "population": "", 
        "population_proper": ""
    }, 
    {
        "city": "Alb\u00e1n", 
        "lat": "4.8766", 
        "lng": "-74.4377", 
        "country": "Colombia", 
        "iso2": "CO", 
        "admin_name": "Cundinamarca", 
        "capital": "minor", 
        "population": "", 
        "population_proper": ""
    }, 
    {
        "city": "Samac\u00e1", 
        "lat": "5.4927", 
        "lng": "-73.4854", 
        "country": "Colombia", 
        "iso2": "CO", 
        "admin_name": "Boyac\u00e1", 
        "capital": "minor", 
        "population": "", 
        "population_proper": ""
    }, 
    {
        "city": "Ap\u00eda", 
        "lat": "5.1066", 
        "lng": "-75.9424", 
        "country": "Colombia", 
        "iso2": "CO", 
        "admin_name": "Risaralda", 
        "capital": "minor", 
        "population": "", 
        "population_proper": ""
    }, 
    {
        "city": "Pueblorrico", 
        "lat": "5.7918", 
        "lng": "-75.8410", 
        "country": "Colombia", 
        "iso2": "CO", 
        "admin_name": "Antioquia", 
        "capital": "minor", 
        "population": "", 
        "population_proper": ""
    }, 
    {
        "city": "G\u00fcepsa", 
        "lat": "6.0251", 
        "lng": "-73.5731", 
        "country": "Colombia", 
        "iso2": "CO", 
        "admin_name": "Santander", 
        "capital": "minor", 
        "population": "", 
        "population_proper": ""
    }, 
    {
        "city": "Pur\u00edsima de la Concepci\u00f3n", 
        "lat": "9.2366", 
        "lng": "-75.7219", 
        "country": "Colombia", 
        "iso2": "CO", 
        "admin_name": "C\u00f3rdoba", 
        "capital": "minor", 
        "population": "", 
        "population_proper": ""
    }, 
    {
        "city": "Chivat\u00e1", 
        "lat": "5.5582", 
        "lng": "-73.2820", 
        "country": "Colombia", 
        "iso2": "CO", 
        "admin_name": "Boyac\u00e1", 
        "capital": "minor", 
        "population": "", 
        "population_proper": ""
    }, 
    {
        "city": "San Sebasti\u00e1n de Mariquita", 
        "lat": "5.1989", 
        "lng": "-74.8929", 
        "country": "Colombia", 
        "iso2": "CO", 
        "admin_name": "Tolima", 
        "capital": "minor", 
        "population": "", 
        "population_proper": ""
    }, 
    {
        "city": "Restrepo", 
        "lat": "3.8220", 
        "lng": "-76.5224", 
        "country": "Colombia", 
        "iso2": "CO", 
        "admin_name": "Valle del Cauca", 
        "capital": "minor", 
        "population": "", 
        "population_proper": ""
    }, 
    {
        "city": "La Uni\u00f3n", 
        "lat": "5.9743", 
        "lng": "-75.3620", 
        "country": "Colombia", 
        "iso2": "CO", 
        "admin_name": "Antioquia", 
        "capital": "minor", 
        "population": "", 
        "population_proper": ""
    }, 
    {
        "city": "Ciudad Bol\u00edvar", 
        "lat": "5.8539", 
        "lng": "-76.0253", 
        "country": "Colombia", 
        "iso2": "CO", 
        "admin_name": "Antioquia", 
        "capital": "minor", 
        "population": "", 
        "population_proper": ""
    }, 
    {
        "city": "San Pedro", 
        "lat": "6.4613", 
        "lng": "-75.5578", 
        "country": "Colombia", 
        "iso2": "CO", 
        "admin_name": "Antioquia", 
        "capital": "minor", 
        "population": "", 
        "population_proper": ""
    }, 
    {
        "city": "Andes", 
        "lat": "5.6561", 
        "lng": "-75.8788", 
        "country": "Colombia", 
        "iso2": "CO", 
        "admin_name": "Antioquia", 
        "capital": "minor", 
        "population": "", 
        "population_proper": ""
    }, 
    {
        "city": "Luruaco", 
        "lat": "10.6106", 
        "lng": "-75.1428", 
        "country": "Colombia", 
        "iso2": "CO", 
        "admin_name": "Atl\u00e1ntico", 
        "capital": "minor", 
        "population": "", 
        "population_proper": ""
    }, 
    {
        "city": "Calamar", 
        "lat": "10.2527", 
        "lng": "-74.9157", 
        "country": "Colombia", 
        "iso2": "CO", 
        "admin_name": "Bol\u00edvar", 
        "capital": "minor", 
        "population": "", 
        "population_proper": ""
    }, 
    {
        "city": "Jenesano", 
        "lat": "5.3854", 
        "lng": "-73.3636", 
        "country": "Colombia", 
        "iso2": "CO", 
        "admin_name": "Boyac\u00e1", 
        "capital": "minor", 
        "population": "", 
        "population_proper": ""
    }, 
    {
        "city": "Florencia", 
        "lat": "1.6832", 
        "lng": "-77.0733", 
        "country": "Colombia", 
        "iso2": "CO", 
        "admin_name": "Cauca", 
        "capital": "minor", 
        "population": "", 
        "population_proper": ""
    }, 
    {
        "city": "Anapoima", 
        "lat": "4.5510", 
        "lng": "-74.5352", 
        "country": "Colombia", 
        "iso2": "CO", 
        "admin_name": "Cundinamarca", 
        "capital": "minor", 
        "population": "", 
        "population_proper": ""
    }, 
    {
        "city": "Hatonuevo", 
        "lat": "11.0676", 
        "lng": "-72.7612", 
        "country": "Colombia", 
        "iso2": "CO", 
        "admin_name": "La Guajira", 
        "capital": "minor", 
        "population": "", 
        "population_proper": ""
    }, 
    {
        "city": "Aguachica", 
        "lat": "8.3084", 
        "lng": "-73.6166", 
        "country": "Colombia", 
        "iso2": "CO", 
        "admin_name": "Cesar", 
        "capital": "minor", 
        "population": "", 
        "population_proper": ""
    }, 
    {
        "city": "San Jos\u00e9", 
        "lat": "5.0822", 
        "lng": "-75.7911", 
        "country": "Colombia", 
        "iso2": "CO", 
        "admin_name": "Caldas", 
        "capital": "minor", 
        "population": "", 
        "population_proper": ""
    }, 
    {
        "city": "T\u00f3paga", 
        "lat": "5.7598", 
        "lng": "-72.8258", 
        "country": "Colombia", 
        "iso2": "CO", 
        "admin_name": "Boyac\u00e1", 
        "capital": "minor", 
        "population": "", 
        "population_proper": ""
    }, 
    {
        "city": "Corinto", 
        "lat": "3.1730", 
        "lng": "-76.2627", 
        "country": "Colombia", 
        "iso2": "CO", 
        "admin_name": "Cauca", 
        "capital": "minor", 
        "population": "", 
        "population_proper": ""
    }, 
    {
        "city": "Venecia", 
        "lat": "5.9628", 
        "lng": "-75.7381", 
        "country": "Colombia", 
        "iso2": "CO", 
        "admin_name": "Antioquia", 
        "capital": "minor", 
        "population": "", 
        "population_proper": ""
    }, 
    {
        "city": "Titirib\u00ed", 
        "lat": "6.0628", 
        "lng": "-75.7937", 
        "country": "Colombia", 
        "iso2": "CO", 
        "admin_name": "Antioquia", 
        "capital": "minor", 
        "population": "", 
        "population_proper": ""
    }, 
    {
        "city": "Cucaita", 
        "lat": "5.5437", 
        "lng": "-73.4543", 
        "country": "Colombia", 
        "iso2": "CO", 
        "admin_name": "Boyac\u00e1", 
        "capital": "minor", 
        "population": "", 
        "population_proper": ""
    }, 
    {
        "city": "La Vega", 
        "lat": "2.0019", 
        "lng": "-76.7789", 
        "country": "Colombia", 
        "iso2": "CO", 
        "admin_name": "Cauca", 
        "capital": "minor", 
        "population": "", 
        "population_proper": ""
    }, 
    {
        "city": "Iles", 
        "lat": "0.9704", 
        "lng": "-77.5215", 
        "country": "Colombia", 
        "iso2": "CO", 
        "admin_name": "Nari\u00f1o", 
        "capital": "minor", 
        "population": "", 
        "population_proper": ""
    }, 
    {
        "city": "Angel\u00f3polis", 
        "lat": "6.1107", 
        "lng": "-75.7092", 
        "country": "Colombia", 
        "iso2": "CO", 
        "admin_name": "Antioquia", 
        "capital": "minor", 
        "population": "", 
        "population_proper": ""
    }, 
    {
        "city": "Carmen de Viboral", 
        "lat": "6.0824", 
        "lng": "-75.3351", 
        "country": "Colombia", 
        "iso2": "CO", 
        "admin_name": "Antioquia", 
        "capital": "minor", 
        "population": "", 
        "population_proper": ""
    }, 
    {
        "city": "Santa Rosa de Viterbo", 
        "lat": "5.8740", 
        "lng": "-72.9822", 
        "country": "Colombia", 
        "iso2": "CO", 
        "admin_name": "Boyac\u00e1", 
        "capital": "minor", 
        "population": "", 
        "population_proper": ""
    }, 
    {
        "city": "Padilla", 
        "lat": "3.2204", 
        "lng": "-76.3139", 
        "country": "Colombia", 
        "iso2": "CO", 
        "admin_name": "Cauca", 
        "capital": "minor", 
        "population": "", 
        "population_proper": ""
    }, 
    {
        "city": "Sutatenza", 
        "lat": "5.0231", 
        "lng": "-73.4523", 
        "country": "Colombia", 
        "iso2": "CO", 
        "admin_name": "Boyac\u00e1", 
        "capital": "minor", 
        "population": "", 
        "population_proper": ""
    }, 
    {
        "city": "Momil", 
        "lat": "9.2377", 
        "lng": "-75.6749", 
        "country": "Colombia", 
        "iso2": "CO", 
        "admin_name": "C\u00f3rdoba", 
        "capital": "minor", 
        "population": "", 
        "population_proper": ""
    }, 
    {
        "city": "Mar\u00eda la Baja", 
        "lat": "9.9832", 
        "lng": "-75.3016", 
        "country": "Colombia", 
        "iso2": "CO", 
        "admin_name": "Bol\u00edvar", 
        "capital": "minor", 
        "population": "", 
        "population_proper": ""
    }, 
    {
        "city": "Santana", 
        "lat": "6.0575", 
        "lng": "-73.4811", 
        "country": "Colombia", 
        "iso2": "CO", 
        "admin_name": "Boyac\u00e1", 
        "capital": "minor", 
        "population": "", 
        "population_proper": ""
    }, 
    {
        "city": "Timan\u00e1", 
        "lat": "1.9714", 
        "lng": "-75.9312", 
        "country": "Colombia", 
        "iso2": "CO", 
        "admin_name": "Huila", 
        "capital": "minor", 
        "population": "", 
        "population_proper": ""
    }, 
    {
        "city": "Risaralda", 
        "lat": "5.1665", 
        "lng": "-75.7660", 
        "country": "Colombia", 
        "iso2": "CO", 
        "admin_name": "Caldas", 
        "capital": "minor", 
        "population": "", 
        "population_proper": ""
    }, 
    {
        "city": "Fredonia", 
        "lat": "5.9258", 
        "lng": "-75.6706", 
        "country": "Colombia", 
        "iso2": "CO", 
        "admin_name": "Antioquia", 
        "capital": "minor", 
        "population": "", 
        "population_proper": ""
    }, 
    {
        "city": "Ventaquemada", 
        "lat": "5.3675", 
        "lng": "-73.5207", 
        "country": "Colombia", 
        "iso2": "CO", 
        "admin_name": "Boyac\u00e1", 
        "capital": "minor", 
        "population": "", 
        "population_proper": ""
    }, 
    {
        "city": "Caloto", 
        "lat": "3.0359", 
        "lng": "-76.4079", 
        "country": "Colombia", 
        "iso2": "CO", 
        "admin_name": "Cauca", 
        "capital": "minor", 
        "population": "", 
        "population_proper": ""
    }, 
    {
        "city": "Anolaima", 
        "lat": "4.7618", 
        "lng": "-74.4640", 
        "country": "Colombia", 
        "iso2": "CO", 
        "admin_name": "Cundinamarca", 
        "capital": "minor", 
        "population": "", 
        "population_proper": ""
    }, 
    {
        "city": "Guachen\u00e9", 
        "lat": "3.1333", 
        "lng": "-76.3927", 
        "country": "Colombia", 
        "iso2": "CO", 
        "admin_name": "Cauca", 
        "capital": "minor", 
        "population": "", 
        "population_proper": ""
    }, 
    {
        "city": "Yacuanquer", 
        "lat": "1.1158", 
        "lng": "-77.4017", 
        "country": "Colombia", 
        "iso2": "CO", 
        "admin_name": "Nari\u00f1o", 
        "capital": "minor", 
        "population": "", 
        "population_proper": ""
    }, 
    {
        "city": "Ci\u00e9naga de Oro", 
        "lat": "8.8744", 
        "lng": "-75.6203", 
        "country": "Colombia", 
        "iso2": "CO", 
        "admin_name": "C\u00f3rdoba", 
        "capital": "minor", 
        "population": "", 
        "population_proper": ""
    }, 
    {
        "city": "Concordia", 
        "lat": "6.0464", 
        "lng": "-75.9071", 
        "country": "Colombia", 
        "iso2": "CO", 
        "admin_name": "Antioquia", 
        "capital": "minor", 
        "population": "", 
        "population_proper": ""
    }, 
    {
        "city": "San Vicente", 
        "lat": "6.2853", 
        "lng": "-75.3338", 
        "country": "Colombia", 
        "iso2": "CO", 
        "admin_name": "Antioquia", 
        "capital": "minor", 
        "population": "", 
        "population_proper": ""
    }, 
    {
        "city": "Manaure Balc\u00f3n del Cesar", 
        "lat": "10.3928", 
        "lng": "-73.0325", 
        "country": "Colombia", 
        "iso2": "CO", 
        "admin_name": "Cesar", 
        "capital": "minor", 
        "population": "", 
        "population_proper": ""
    }, 
    {
        "city": "Pinchote", 
        "lat": "6.5323", 
        "lng": "-73.1731", 
        "country": "Colombia", 
        "iso2": "CO", 
        "admin_name": "Santander", 
        "capital": "minor", 
        "population": "", 
        "population_proper": ""
    }, 
    {
        "city": "Juan de Acosta", 
        "lat": "10.8293", 
        "lng": "-75.0335", 
        "country": "Colombia", 
        "iso2": "CO", 
        "admin_name": "Atl\u00e1ntico", 
        "capital": "minor", 
        "population": "", 
        "population_proper": ""
    }, 
    {
        "city": "Donmat\u00edas", 
        "lat": "6.4857", 
        "lng": "-75.3950", 
        "country": "Colombia", 
        "iso2": "CO", 
        "admin_name": "Antioquia", 
        "capital": "minor", 
        "population": "", 
        "population_proper": ""
    }, 
    {
        "city": "Manzanares", 
        "lat": "5.2540", 
        "lng": "-75.1540", 
        "country": "Colombia", 
        "iso2": "CO", 
        "admin_name": "Caldas", 
        "capital": "minor", 
        "population": "", 
        "population_proper": ""
    }, 
    {
        "city": "Moniquir\u00e1", 
        "lat": "5.8764", 
        "lng": "-73.5728", 
        "country": "Colombia", 
        "iso2": "CO", 
        "admin_name": "Boyac\u00e1", 
        "capital": "minor", 
        "population": "", 
        "population_proper": ""
    }, 
    {
        "city": "Zipac\u00f3n", 
        "lat": "4.7588", 
        "lng": "-74.3802", 
        "country": "Colombia", 
        "iso2": "CO", 
        "admin_name": "Cundinamarca", 
        "capital": "minor", 
        "population": "", 
        "population_proper": ""
    }, 
    {
        "city": "Turban\u00e1", 
        "lat": "10.2717", 
        "lng": "-75.4422", 
        "country": "Colombia", 
        "iso2": "CO", 
        "admin_name": "Bol\u00edvar", 
        "capital": "minor", 
        "population": "", 
        "population_proper": ""
    }, 
    {
        "city": "Caldono", 
        "lat": "2.7974", 
        "lng": "-76.4832", 
        "country": "Colombia", 
        "iso2": "CO", 
        "admin_name": "Cauca", 
        "capital": "minor", 
        "population": "", 
        "population_proper": ""
    }, 
    {
        "city": "Suesca", 
        "lat": "5.1029", 
        "lng": "-73.7985", 
        "country": "Colombia", 
        "iso2": "CO", 
        "admin_name": "Cundinamarca", 
        "capital": "minor", 
        "population": "", 
        "population_proper": ""
    }, 
    {
        "city": "Hispania", 
        "lat": "5.7993", 
        "lng": "-75.9072", 
        "country": "Colombia", 
        "iso2": "CO", 
        "admin_name": "Antioquia", 
        "capital": "minor", 
        "population": "", 
        "population_proper": ""
    }, 
    {
        "city": "Repel\u00f3n", 
        "lat": "10.4952", 
        "lng": "-75.1245", 
        "country": "Colombia", 
        "iso2": "CO", 
        "admin_name": "Atl\u00e1ntico", 
        "capital": "minor", 
        "population": "", 
        "population_proper": ""
    }, 
    {
        "city": "Nari\u00f1o", 
        "lat": "1.2899", 
        "lng": "-77.3572", 
        "country": "Colombia", 
        "iso2": "CO", 
        "admin_name": "Nari\u00f1o", 
        "capital": "minor", 
        "population": "", 
        "population_proper": ""
    }, 
    {
        "city": "Paipa", 
        "lat": "5.7801", 
        "lng": "-73.1171", 
        "country": "Colombia", 
        "iso2": "CO", 
        "admin_name": "Boyac\u00e1", 
        "capital": "minor", 
        "population": "", 
        "population_proper": ""
    }, 
    {
        "city": "Chin\u00e1cota", 
        "lat": "7.6073", 
        "lng": "-72.6011", 
        "country": "Colombia", 
        "iso2": "CO", 
        "admin_name": "Norte de Santander", 
        "capital": "minor", 
        "population": "", 
        "population_proper": ""
    }, 
    {
        "city": "Villanueva", 
        "lat": "10.6077", 
        "lng": "-72.9790", 
        "country": "Colombia", 
        "iso2": "CO", 
        "admin_name": "La Guajira", 
        "capital": "minor", 
        "population": "", 
        "population_proper": ""
    }, 
    {
        "city": "Vijes", 
        "lat": "3.6993", 
        "lng": "-76.4423", 
        "country": "Colombia", 
        "iso2": "CO", 
        "admin_name": "Valle del Cauca", 
        "capital": "minor", 
        "population": "", 
        "population_proper": ""
    }, 
    {
        "city": "C\u00f3mbita", 
        "lat": "5.6331", 
        "lng": "-73.3240", 
        "country": "Colombia", 
        "iso2": "CO", 
        "admin_name": "Boyac\u00e1", 
        "capital": "minor", 
        "population": "", 
        "population_proper": ""
    }, 
    {
        "city": "Boyac\u00e1", 
        "lat": "5.4537", 
        "lng": "-73.3625", 
        "country": "Colombia", 
        "iso2": "CO", 
        "admin_name": "Boyac\u00e1", 
        "capital": "minor", 
        "population": "", 
        "population_proper": ""
    }, 
    {
        "city": "San Juan de Urab\u00e1", 
        "lat": "8.7592", 
        "lng": "-76.5297", 
        "country": "Colombia", 
        "iso2": "CO", 
        "admin_name": "Antioquia", 
        "capital": "minor", 
        "population": "", 
        "population_proper": ""
    }, 
    {
        "city": "Almaguer", 
        "lat": "1.9147", 
        "lng": "-76.8548", 
        "country": "Colombia", 
        "iso2": "CO", 
        "admin_name": "Cauca", 
        "capital": "minor", 
        "population": "", 
        "population_proper": ""
    }, 
    {
        "city": "Candelaria", 
        "lat": "10.4591", 
        "lng": "-74.8797", 
        "country": "Colombia", 
        "iso2": "CO", 
        "admin_name": "Atl\u00e1ntico", 
        "capital": "minor", 
        "population": "", 
        "population_proper": ""
    }, 
    {
        "city": "Concordia", 
        "lat": "10.2576", 
        "lng": "-74.8333", 
        "country": "Colombia", 
        "iso2": "CO", 
        "admin_name": "Magdalena", 
        "capital": "minor", 
        "population": "", 
        "population_proper": ""
    }, 
    {
        "city": "Chigorod\u00f3", 
        "lat": "7.6664", 
        "lng": "-76.6811", 
        "country": "Colombia", 
        "iso2": "CO", 
        "admin_name": "Antioquia", 
        "capital": "minor", 
        "population": "", 
        "population_proper": ""
    }, 
    {
        "city": "Chachag\u00fc\u00ed", 
        "lat": "1.3613", 
        "lng": "-77.2838", 
        "country": "Colombia", 
        "iso2": "CO", 
        "admin_name": "Nari\u00f1o", 
        "capital": "minor", 
        "population": "", 
        "population_proper": ""
    }, 
    {
        "city": "Viterbo", 
        "lat": "5.0624", 
        "lng": "-75.8716", 
        "country": "Colombia", 
        "iso2": "CO", 
        "admin_name": "Caldas", 
        "capital": "minor", 
        "population": "", 
        "population_proper": ""
    }, 
    {
        "city": "Soplaviento", 
        "lat": "10.3931", 
        "lng": "-75.1408", 
        "country": "Colombia", 
        "iso2": "CO", 
        "admin_name": "Bol\u00edvar", 
        "capital": "minor", 
        "population": "", 
        "population_proper": ""
    }, 
    {
        "city": "Guachucal", 
        "lat": "0.9609", 
        "lng": "-77.7316", 
        "country": "Colombia", 
        "iso2": "CO", 
        "admin_name": "Nari\u00f1o", 
        "capital": "minor", 
        "population": "", 
        "population_proper": ""
    }, 
    {
        "city": "Maicao", 
        "lat": "11.3784", 
        "lng": "-72.2395", 
        "country": "Colombia", 
        "iso2": "CO", 
        "admin_name": "La Guajira", 
        "capital": "minor", 
        "population": "", 
        "population_proper": ""
    }, 
    {
        "city": "Sorac\u00e1", 
        "lat": "5.5005", 
        "lng": "-73.3330", 
        "country": "Colombia", 
        "iso2": "CO", 
        "admin_name": "Boyac\u00e1", 
        "capital": "minor", 
        "population": "", 
        "population_proper": ""
    }, 
    {
        "city": "Manaure", 
        "lat": "11.7750", 
        "lng": "-72.4445", 
        "country": "Colombia", 
        "iso2": "CO", 
        "admin_name": "La Guajira", 
        "capital": "minor", 
        "population": "", 
        "population_proper": ""
    }, 
    {
        "city": "La Vega", 
        "lat": "4.9978", 
        "lng": "-74.3398", 
        "country": "Colombia", 
        "iso2": "CO", 
        "admin_name": "Cundinamarca", 
        "capital": "minor", 
        "population": "", 
        "population_proper": ""
    }, 
    {
        "city": "San Pelayo", 
        "lat": "8.9583", 
        "lng": "-75.8363", 
        "country": "Colombia", 
        "iso2": "CO", 
        "admin_name": "C\u00f3rdoba", 
        "capital": "minor", 
        "population": "", 
        "population_proper": ""
    }, 
    {
        "city": "San Pedro", 
        "lat": "3.9946", 
        "lng": "-76.2278", 
        "country": "Colombia", 
        "iso2": "CO", 
        "admin_name": "Valle del Cauca", 
        "capital": "minor", 
        "population": "", 
        "population_proper": ""
    }, 
    {
        "city": "Momp\u00f3s", 
        "lat": "9.2419", 
        "lng": "-74.4267", 
        "country": "Colombia", 
        "iso2": "CO", 
        "admin_name": "Bol\u00edvar", 
        "capital": "minor", 
        "population": "", 
        "population_proper": ""
    }, 
    {
        "city": "Guadalupe", 
        "lat": "2.0248", 
        "lng": "-75.7559", 
        "country": "Colombia", 
        "iso2": "CO", 
        "admin_name": "Huila", 
        "capital": "minor", 
        "population": "", 
        "population_proper": ""
    }, 
    {
        "city": "Belalc\u00e1zar", 
        "lat": "4.9953", 
        "lng": "-75.8128", 
        "country": "Colombia", 
        "iso2": "CO", 
        "admin_name": "Caldas", 
        "capital": "minor", 
        "population": "", 
        "population_proper": ""
    }, 
    {
        "city": "El Ret\u00e9n", 
        "lat": "10.6114", 
        "lng": "-74.2682", 
        "country": "Colombia", 
        "iso2": "CO", 
        "admin_name": "Magdalena", 
        "capital": "minor", 
        "population": "", 
        "population_proper": ""
    }, 
    {
        "city": "Ci\u00e9nega", 
        "lat": "5.4087", 
        "lng": "-73.2957", 
        "country": "Colombia", 
        "iso2": "CO", 
        "admin_name": "Boyac\u00e1", 
        "capital": "minor", 
        "population": "", 
        "population_proper": ""
    }, 
    {
        "city": "La Dorada", 
        "lat": "0.3431", 
        "lng": "-76.9112", 
        "country": "Colombia", 
        "iso2": "CO", 
        "admin_name": "Putumayo", 
        "capital": "minor", 
        "population": "", 
        "population_proper": ""
    }, 
    {
        "city": "Oporapa", 
        "lat": "2.0238", 
        "lng": "-75.9959", 
        "country": "Colombia", 
        "iso2": "CO", 
        "admin_name": "Huila", 
        "capital": "minor", 
        "population": "", 
        "population_proper": ""
    }, 
    {
        "city": "Usiacur\u00ed", 
        "lat": "10.7431", 
        "lng": "-74.9760", 
        "country": "Colombia", 
        "iso2": "CO", 
        "admin_name": "Atl\u00e1ntico", 
        "capital": "minor", 
        "population": "", 
        "population_proper": ""
    }, 
    {
        "city": "Sasaima", 
        "lat": "4.9638", 
        "lng": "-74.4348", 
        "country": "Colombia", 
        "iso2": "CO", 
        "admin_name": "Cundinamarca", 
        "capital": "minor", 
        "population": "", 
        "population_proper": ""
    }, 
    {
        "city": "Santa Catalina", 
        "lat": "10.6036", 
        "lng": "-75.2882", 
        "country": "Colombia", 
        "iso2": "CO", 
        "admin_name": "Bol\u00edvar", 
        "capital": "minor", 
        "population": "", 
        "population_proper": ""
    }, 
    {
        "city": "La Hormiga", 
        "lat": "0.4258", 
        "lng": "-76.9056", 
        "country": "Colombia", 
        "iso2": "CO", 
        "admin_name": "Putumayo", 
        "capital": "minor", 
        "population": "", 
        "population_proper": ""
    }, 
    {
        "city": "Garagoa", 
        "lat": "5.0824", 
        "lng": "-73.3633", 
        "country": "Colombia", 
        "iso2": "CO", 
        "admin_name": "Boyac\u00e1", 
        "capital": "minor", 
        "population": "", 
        "population_proper": ""
    }, 
    {
        "city": "Jambal\u00f3", 
        "lat": "2.7776", 
        "lng": "-76.3244", 
        "country": "Colombia", 
        "iso2": "CO", 
        "admin_name": "Cauca", 
        "capital": "minor", 
        "population": "", 
        "population_proper": ""
    }, 
    {
        "city": "Tenza", 
        "lat": "5.0766", 
        "lng": "-73.4208", 
        "country": "Colombia", 
        "iso2": "CO", 
        "admin_name": "Boyac\u00e1", 
        "capital": "minor", 
        "population": "", 
        "population_proper": ""
    }, 
    {
        "city": "Taminango", 
        "lat": "1.5703", 
        "lng": "-77.2804", 
        "country": "Colombia", 
        "iso2": "CO", 
        "admin_name": "Nari\u00f1o", 
        "capital": "minor", 
        "population": "", 
        "population_proper": ""
    }, 
    {
        "city": "Rosas", 
        "lat": "2.2609", 
        "lng": "-76.7399", 
        "country": "Colombia", 
        "iso2": "CO", 
        "admin_name": "Cauca", 
        "capital": "minor", 
        "population": "", 
        "population_proper": ""
    }, 
    {
        "city": "Nocaima", 
        "lat": "5.0698", 
        "lng": "-74.3780", 
        "country": "Colombia", 
        "iso2": "CO", 
        "admin_name": "Cundinamarca", 
        "capital": "minor", 
        "population": "", 
        "population_proper": ""
    }, 
    {
        "city": "Toro", 
        "lat": "4.6117", 
        "lng": "-76.0814", 
        "country": "Colombia", 
        "iso2": "CO", 
        "admin_name": "Valle del Cauca", 
        "capital": "minor", 
        "population": "", 
        "population_proper": ""
    }, 
    {
        "city": "Chin\u00fa", 
        "lat": "9.1057", 
        "lng": "-75.3981", 
        "country": "Colombia", 
        "iso2": "CO", 
        "admin_name": "C\u00f3rdoba", 
        "capital": "minor", 
        "population": "", 
        "population_proper": ""
    },